Fuel Type Code,Station Name,Street Address,Intersection Directions,City,State,ZIP,Plus4,Station Phone,Status Code,Expected Date,Groups With Access Code,Access Days Time,Cards Accepted,BD Blends,NG Fill Type Code,NG PSI,EV Level1 EVSE Num,EV Level2 EVSE Num,EV DC Fast Count,EV Other Info,EV Network,EV Network Web,Geocode Status,Latitude,Longitude,Date Last Confirmed,ID,Updated At,Owner Type Code,Federal Agency ID,Federal Agency Name,Open Date,Hydrogen Status Link,NG Vehicle Class,LPG Primary,E85 Blender Pump,EV Connector Types,Country,Intersection Directions (French),Access Days Time (French),BD Blends (French),Groups With Access Code (French),Hydrogen Is Retail,Access Code,Access Detail Code,Federal Agency Code,Facility Type,CNG Dispenser Num,CNG On-Site Renewable Source,CNG Total Compression Capacity,CNG Storage Capacity,LNG On-Site Renewable Source,E85 Other Ethanol Blends,EV Pricing,EV Pricing (French),LPG Nozzle Types,Hydrogen Pressures,Hydrogen Standards,CNG Fill Type Code,CNG PSI,CNG Vehicle Class,LNG Vehicle Class,EV On-Site Renewable Source,Restricted Access,RD Blends,RD Blends (French),RD Blended with Biodiesel,RD Maximum Biodiesel Level,NPS Unit Name,CNG Station Sells Renewable Natural Gas,LNG Station Sells Renewable Natural Gas,Maximum Vehicle Class,EV Workplace Charging,Funding Sources
ELEC,JCCC MTC,12345 College Blvd,In the parking garage NW to the Carlsen Ctr,Overland Park,KS,66210,,888-758-4389,E,,Public,24 hours daily,,,,,,2,,,ChargePoint Network,https://www.chargepoint.com,GPS,38.92591,-94.72819,2025-07-17,37683,2025-07-17 01:21:37 UTC,,,,2011-08-15,,,,,J1772,US,,,,Public,,public,,,,,,,,,,,,,,,,,,,,,,,,,,,,,false,
ELEC,Briggs Nissan - Lawrence,2101 W 29th Terrace,,Lawrence,KS,66047,,785-856-8889,E,,Public - Call ahead,Dealership business hours,,,,,,1,,,Non-Networked,,200-9,38.929774,-95.261724,2024-02-12,47165,2025-02-12 00:16:32 UTC,P,,,2012-01-31,,,,,J1772,US,,,,Public - Appeler à l'avance,,public,CALL,,CAR_DEALER,,,,,,,Free,,,,,,,,,,false,,,,,,,,,false,
ELEC,Briggs Auto Group,2500 Stagg Hill Rd,,Manhattan,KS,66502,,785-537-8330,E,,Public - Call ahead,Dealership business hours,,,,,,1,,,Non-Networked,,200-8,39.16835,-96.60002,2024-02-12,47167,2025-02-12 00:16:32 UTC,P,,,2012-01-31,,,,,J1772,US,,,,Public - Appeler à l'avance,,public,CALL,,CAR_DEALER,,,,,,,Free,,,,,,,,,,false,,,,,,,,LD,false,
ELEC,Briggs Auto Group,2500 Stagg Hill Rd,,Manhattan,KS,66502,,785-537-8330,E,,Private,,,,,,,1,,,Non-Networked,,200-8,39.16835,-96.60002,2024-02-12,47168,2025-02-12 00:16:32 UTC,P,,,2012-01-31,,,,,J1772,US,,,,Privé,,private,,,CAR_DEALER,,,,,,,Free,,,,,,,,,,,,,,,,,,,false,
ELEC,Marshall Motor Co,3550 S 9th St,,Salina,KS,67401,,785-827-9641,E,,Public - Call ahead,Dealership business hours,,,,,,1,,,Non-Networked,,200-8,38.77118,-97.61415,2024-02-12,47169,2025-02-12 00:16:32 UTC,P,,,2012-01-31,,,,,J1772,US,,,,Public - Appeler à l'avance,,public,CALL,,CAR_DEALER,,,,,,,Free,,,,,,,,,,false,,,,,,,,LD,false,
ELEC,Marshall Motor Co,3550 S 9th St,,Salina,KS,67401,,785-827-9641,E,,Private,,,,,,,1,,,Non-Networked,,200-8,38.77118,-97.61415,2024-02-12,47170,2025-02-12 00:16:32 UTC,P,,,2012-01-31,,,,,J1772,US,,,,Privé,,private,,,CAR_DEALER,,,,,,,Free,,,,,,,,,,,,,,,,,,,false,
ELEC,Capital City Nissan - Topeka,1980 SW Topeka Blvd,,Topeka,KS,66612,,785-267-6700,E,,Public - Call ahead,Dealership business hours,,,,,,1,,,Non-Networked,,200-8,39.03305,-95.68228,2024-02-12,47171,2025-02-12 00:16:32 UTC,P,,,2012-01-31,,,,,J1772,US,,,,Public - Appeler à l'avance,,public,CALL,,CAR_DEALER,,,,,,,Free,,,,,,,,,,false,,,,,,,,LD,false,
ELEC,Capital City Nissan - Topeka,1980 SW Topeka Blvd,,Topeka,KS,66612,,785-267-6700,E,,Private,,,,,,,1,,,Non-Networked,,200-8,39.03305,-95.68228,2024-02-12,47172,2025-02-12 00:16:32 UTC,P,,,2012-01-31,,,,,J1772,US,,,,Privé,,private,,,CAR_DEALER,,,,,,,Free,,,,,,,,,,,,,,,,,,,false,
ELEC,Orr Nissan - Wichita,10625 E Kellogg Dr,,Wichita,KS,67207,,316-618-2000,E,,Public - Call ahead,Dealership business hours,,,,,,1,,,Non-Networked,,200-8,37.679034,-97.217163,2024-02-12,47173,2025-02-12 00:16:32 UTC,P,,,2012-01-31,,,,,J1772,US,,,,Public - Appeler à l'avance,,public,CALL,,CAR_DEALER,,,,,,,Free,,,,,,,,,,false,,,,,,,,,false,
ELEC,Orr Nissan - Wichita,10625 E Kellogg Dr,,Wichita,KS,67207,,316-618-2000,E,,Private,,,,,,,1,,,Non-Networked,,200-8,37.679034,-97.217163,2024-02-12,47174,2025-02-12 00:16:32 UTC,P,,,2012-01-31,,,,,J1772,US,,,,Privé,,private,,,CAR_DEALER,,,,,,,,,,,,,,,,,,,,,,,,,,false,
ELEC,Evergy - Topeka General Office,818 S Kansas Ave,Located on 8th St and S Kansas Av,Topeka,KS,66612,,800-383-1183,E,,Public,24 hours daily,,,,,,2,,,Non-Networked,,200-9,39.048,-95.674347,2025-01-13,47919,2025-02-12 00:16:32 UTC,T,,,2011-10-01,,,,,J1772,US,,,,Public,,public,,,UTILITY,,,,,,,Free,,,,,,,,,,false,,,,,,,,,false,
ELEC,Evergy - Topeka Operations Center,4001 NW 14th,Located in the SW corner of the covered parking at the Fleet Shop,Topeka,KS,66618,,800-383-1183,E,,Public,24 hours daily,,,,,,6,,,Non-Networked,,200-9,39.076033,-95.723478,2025-01-13,47920,2025-02-12 00:16:32 UTC,T,,,2011-06-01,,,,,J1772,US,,,,Public,,public,,,UTILITY,,,,,,,Free,,,,,,,,,,false,,,,,,,,,false,
ELEC,Evergy - Professional Development Center,801 NE US Highway 24,Located on the west side of the parking lot,Topeka,KS,66608,,800-383-1183,E,,Public,24 hours daily,,,,,,2,,,Non-Networked,,200-9,39.088891,-95.645101,2025-01-13,47921,2025-02-12 00:16:32 UTC,T,,,2012-04-01,,,,,J1772,US,,,,Public,,public,,,UTILITY,,,,,,,Free,,,,,,,,,,false,,,,,,,,LD,false,
ELEC,Evergy - Wichita General Office,100 N Broadway St,"Located Bank of America building parking garage, level 3",Wichita,KS,67202,,800-383-1183,E,,Public,24 hours daily; pay lot; permit required,,,,,,2,,,Non-Networked,,200-9,37.686731,-97.334925,2025-01-13,47922,2025-02-12 00:16:32 UTC,T,,,2011-06-01,,,,,J1772,US,,,,Public,,public,,,UTILITY,,,,,,,Free,,,,,,,,,,true,,,,,,,,,false,
ELEC,Evergy - Wichita Service Building,1900 E Central Ave,Located south of the Fleet office.  Space is painted green,Wichita,KS,67214,,800-383-1183,E,,Public,24 hours daily,,,,,,2,,,Non-Networked,,200-9,37.695062,-97.313754,2025-01-13,47923,2025-02-12 00:16:32 UTC,T,,,2011-06-01,,,,,J1772,US,,,,Public,,public,,,UTILITY,,,,,,,Free,,,,,,,,,,false,,,,,,,,,false,
ELEC,Evergy - Lawrence Service Center,746 E 27th St,Located in the public parking area in the NW corner,Lawrence,KS,66046,,800-383-1183,E,,Public,24 hours daily,,,,,,2,,,Non-Networked,,200-9,38.935654,-95.226631,2025-01-13,47924,2025-02-12 00:16:32 UTC,T,,,2012-01-01,,,,,J1772,US,,,,Public,,public,,,UTILITY,,,,,,,Free,,,,,,,,,,false,,,,,,,,,false,
ELEC,Evergy - Manhattan Service Center,225 Seth Child Rd,,Manhattan,KS,66502,,800-383-1183,E,,Public,24 hours daily,,,,,,1,,,Non-Networked,,200-8,39.192486,-96.612271,2025-01-13,47926,2025-02-12 00:16:32 UTC,T,,,2012-05-01,,,,,J1772,US,,,,Public,,public,,,UTILITY,,,,,,,Free,,,,,,,,,,false,,,,,,,,LD,false,
ELEC,Evergy - Independence Service Center,1101 E Main St,,Independence,KS,67301,,800-383-1183,E,,Public,24 hours daily,,,,,,1,,,Non-Networked,,200-8,37.223118,-95.683942,2025-01-13,47927,2025-02-12 00:16:32 UTC,T,,,2012-05-01,,,,,J1772,US,,,,Public,,public,,,UTILITY,,,,,,,,,,,,,,,,,false,,,,,,,,LD,false,
ELEC,Evergy - Shawnee Service Center,23505 W 86th St,Located in front of the main entrance,Shawnee,KS,66227,,800-383-1183,E,,Public,24 hours daily,,,,,,2,,,Non-Networked,,GPS,38.97130638878733,-94.85996454232787,2025-01-13,47928,2025-02-12 00:16:32 UTC,T,,,2012-04-01,,,,,J1772,US,,,,Public,,public,,,UTILITY,,,,,,,Free,,,,,,,,,,false,,,,,,,,LD,false,
ELEC,Evergy - El Dorado Service Center,700 N Star St,,El Dorado,KS,67042,,800-383-1183,E,,Public,24 hours daily,,,,,,1,,,Non-Networked,,200-9,37.825334,-96.852057,2025-01-13,47929,2025-02-12 00:16:32 UTC,T,,,2012-04-01,,,,,J1772,US,,,,Public,,public,,,UTILITY,,,,,,,Free,,,,,,,,,,false,,,,,,,,LD,false,
ELEC,Evergy - Newton Service Center,300 W 1st St,Located to the west of the building,Newton,KS,67114,,800-383-1183,E,,Public,24 hours daily,,,,,,1,,,Non-Networked,,200-9,38.043338,-97.349011,2025-01-13,47930,2025-02-12 00:16:32 UTC,T,,,2012-05-01,,,,,J1772,US,,,,Public,,public,,,UTILITY,,,,,,,Free,,,,,,,,,,false,,,,,,,,LD,false,
ELEC,Evergy - Hutchinson Electric Service Center,1000 N Halstead St,,Hutchinson,KS,67501,,800-383-1183,E,,Public,24 hours daily,,,,,,1,,,Non-Networked,,200-9,38.063975,-97.884172,2025-01-13,47931,2025-02-12 00:16:32 UTC,T,,,2012-04-01,,,,,J1772,US,,,,Public,,public,,,UTILITY,,,,,,,Free,,,,,,,,,,false,,,,,,,,LD,false,
ELEC,Evergy - Arkansas City Service Center,3113 N Summit St,,Arkansas City,KS,67005,,800-383-1183,E,,Public,24 hours daily,,,,,,1,,,Non-Networked,,200-8,37.096241,-97.040242,2025-01-13,47932,2025-02-12 00:16:32 UTC,T,,,2012-04-01,,,,,J1772,US,,,,Public,,public,,,UTILITY,,,,,,,Free,,,,,,,,,,false,,,,,,,,LD,false,
ELEC,Evergy - Wolf Creek - Dwight D Eisenhower Learning Center,1550 Oxen Ln NE,,Burlington,KS,66839,,800-383-1183,E,,Public,24 hours daily,,,,,,1,,,Non-Networked,,GPS,38.23899,-95.6886,2025-01-13,47933,2025-02-12 00:16:32 UTC,T,,,2012-04-01,,,,,J1772,US,,,,Public,,public,,,UTILITY,,,,,,,,,,,,,,,,,false,,,,,,,,LD,false,
ELEC,Evergy - Gordon Evans Energy Center,6001 N 151 St W,,Colwich,KS,67030,,800-383-1183,E,,Public,24 hours daily,,,,,,1,,,Non-Networked,,200-9,37.790387,-97.522657,2025-01-13,47934,2025-02-12 00:16:32 UTC,T,,,2013-01-01,,,,,J1772,US,,,,Public,,public,,,UTILITY,,,,,,,Free,,,,,,,,,,false,,,,,,,,,false,
ELEC,McCarthy Olathe Nissan,683 N Rawhide Rd,,Olathe,KS,66061,,913-232-2624,E,,Public - Call ahead,Dealership business hours,,,,,,1,,,Non-Networked,,200-9,38.890314,-94.790275,2024-02-12,49787,2025-02-12 00:16:32 UTC,P,,,2012-10-25,,,,,J1772,US,,,,Public - Appeler à l'avance,,public,CALL,,CAR_DEALER,,,,,,,Free,,,,,,,,,,false,,,,,,,,,false,
ELEC,McCarthy Olathe Nissan,683 N Rawhide Rd,,Olathe,KS,66061,,913-232-2624,E,,Private,,,,,,,1,,,Non-Networked,,200-9,38.890314,-94.790275,2024-02-12,49788,2025-02-12 00:16:32 UTC,P,,,2012-10-25,,,,,J1772,US,,,,Privé,,private,,,CAR_DEALER,,,,,,,Free,,,,,,,,,,,,,,,,,,,false,
ELEC,Evergy - Gordon Evans Energy Center,6001 N 151 St W,,Colwich,KS,67030,,800-383-1183,E,,Private,Fleet use only,,,,,,1,,,Non-Networked,,200-9,37.790387,-97.522657,2025-01-13,52908,2025-02-12 00:16:32 UTC,T,,,2013-01-01,,,,,J1772,US,,,,Privé,,private,,,UTILITY,,,,,,,,,,,,,,,,,,,,,,,,,,false,
ELEC,Evergy - Emporia Energy Center,1685 Rd 200,,Emporia,KS,66801,,,E,,Private,Fleet use only,,,,,,1,,,Non-Networked,,200-8,38.448415,-96.073995,2025-01-13,52909,2025-02-12 00:16:32 UTC,T,,,2013-01-01,,,,,J1772,US,,,,Privé,,private,,,UTILITY,,,,,,,,,,,,,,,,,,,,,,,,,,false,
ELEC,Evergy - Fort Scott Service Center,15 Stanton St,Located in parking lot,Fort Scott,KS,66701,,800-383-1183,E,,Public,24 hours daily,,,,,,1,,,Non-Networked,,200-8,37.843833,-94.706851,2025-01-13,52910,2025-02-12 00:16:32 UTC,T,,,2013-01-01,,,,,J1772,US,,,,Public,,public,,,UTILITY,,,,,,,Free,,,,,,,,,,false,,,,,,,,LD,false,
ELEC,Evergy - Humboldt Service Center,1318 Signor,Located in parking lot,Humboldt,KS,66748,,800-383-1183,E,,Public,24 hours daily,,,,,,1,,,Non-Networked,,200-9,37.817103,-95.429144,2025-01-13,52911,2025-02-12 00:16:32 UTC,T,,,2013-01-01,,,,,J1772,US,,,,Public,,public,,,UTILITY,,,,,,,,,,,,,,,,,false,,,,,,,,LD,false,
ELEC,Evergy - Lawrence Energy Center,1250 N 1800 Rd,,Lawrence,KS,66049,,,E,,Private,Fleet use only,,,,,,1,,,Non-Networked,,200-9,39.006795,-95.269499,2025-01-13,52912,2025-02-12 00:16:32 UTC,T,,,2013-01-01,,,,,J1772,US,,,,Privé,,private,,,UTILITY,,,,,,,,,,,,,,,,,,,,,,,,,,false,
ELEC,Evergy - Lawrence Service Center,746 E 27th St,Located in the public parking area in the NW corner,Lawrence,KS,66046,,800-383-1183,E,,Private,Fleet use only,,,,,,1,,,Non-Networked,,200-9,38.935654,-95.226631,2025-01-13,52913,2025-02-12 00:16:32 UTC,T,,,2013-01-01,,,,,J1772,US,,,,Privé,,private,,,UTILITY,,,,,,,,,,,,,,,,,,,,,,,,,,false,
ELEC,Evergy - Leavenworth Service Center,2720 N 2nd Ave,Located in NW parking lot,Leavenworth,KS,66048,,800-383-1183,E,,Public,24 hours daily,,,,,,1,,,Non-Networked,,200-9,39.289808,-94.914886,2025-01-13,52914,2025-02-12 00:16:32 UTC,T,,,2013-01-01,,,,,J1772,US,,,,Public,,public,,,UTILITY,,,,,,,Free,,,,,,,,,,false,,,,,,,,LD,false,
ELEC,Evergy - Jeffrey Energy Center,25905 Jeffrey Rd,,St. Mary's,KS,66536,,,E,,Private,Fleet use only,,,,,,1,,,Non-Networked,,200-9,39.281272,-96.120005,2025-01-13,52916,2025-02-12 00:16:32 UTC,T,,,2013-01-01,,,,,J1772,US,,,,Privé,,private,,,UTILITY,,,,,,,,,,,,,,,,,,,,,,,,,,false,
ELEC,Evergy - Salina Service Center,1001 Edison Pl,,Salina,KS,67401,,,E,,Private,Fleet use only,,,,,,1,,,Non-Networked,,200-9,38.832299,-97.595897,2025-01-13,52917,2025-02-12 00:16:32 UTC,T,,,2013-01-01,,,,,J1772,US,,,,Privé,,private,,,UTILITY,,,,,,,,,,,,,,,,,,,,,,,,,,false,
ELEC,Evergy - Tecumseh Energy Center,5530 SE 2nd St,,Tecumseh,KS,66542,,,E,,Private,Fleet use only,,,,,,2,,,Non-Networked,,200-8,39.051538,-95.568062,2025-01-13,52918,2025-02-12 00:16:32 UTC,T,,,2013-01-01,,,,,J1772,US,,,,Privé,,private,,,UTILITY,,,,,,,,,,,,,,,,,,,,,,,,,,false,
ELEC,Evergy - Topeka General Office,818 S Kansas Ave,Located on 8th St and S Kansas Av,Topeka,KS,66612,,800-383-1183,E,,Private,Fleet use only,,,,,,12,,,Non-Networked,,200-9,39.048,-95.674347,2025-01-13,52919,2025-02-12 00:16:32 UTC,T,,,2013-01-01,,,,,J1772,US,,,,Privé,,private,,,UTILITY,,,,,,,,,,,,,,,,,,,,,,,,,,false,
ELEC,Evergy - Topeka Operations Center,4001 NW 14th,Located in the SW corner of the covered parking at the Fleet Shop,Topeka,KS,66618,,800-383-1183,E,,Private,Fleet use only,,,,,,2,,,Non-Networked,,200-9,39.076033,-95.723478,2025-01-13,52920,2025-02-12 00:16:32 UTC,T,,,2013-01-01,,,,,J1772,US,,,,Privé,,private,,,UTILITY,,,,,,,,,,,,,,,,,,,,,,,,,,false,
ELEC,Evergy - Murray Gill Energy Center,6100 W 55th St S,,Wichita,KS,67215,,,E,,Private,Fleet use only,,,,,,2,,,Non-Networked,,200-9,37.596859,-97.411948,2025-01-13,52921,2025-02-12 00:16:32 UTC,T,,,2013-01-01,,,,,J1772,US,,,,Privé,,private,,,UTILITY,,,,,,,,,,,,,,,,,,,,,,,,,,false,
ELEC,Evergy - Wichita General Office,100 N Broadway St,"Located Bank of America building parking garage, level 3",Wichita,KS,67202,,800-383-1183,E,,Private,Fleet use only,,,,,,3,,,Non-Networked,,200-9,37.686731,-97.334925,2025-01-13,52922,2025-02-12 00:16:32 UTC,T,,,2013-01-01,,,,,J1772,US,,,,Privé,,private,,,UTILITY,,,,,,,,,,,,,,,,,,,,,,,,,,false,
ELEC,Evergy - Wichita Service Building,1900 E Central Ave,Located south of the Fleet office.  Space is painted green,Wichita,KS,67214,,800-383-1183,E,,Private,Fleet use only,,,,,,2,,,Non-Networked,,200-9,37.695062,-97.313754,2025-01-13,52923,2025-02-12 00:16:32 UTC,T,,,2013-01-01,,,,,J1772,US,,,,Privé,,private,,,UTILITY,,,,,,,,,,,,,,,,,,,,,,,,,,false,
ELEC,ASPIRIA GARAGE P,6260 Sprint Pkwy Garage P,South side of the parking garage next to the electrical room,Overland Park,KS,66251,,888-758-4389,E,,Public,24 hours daily,,,,,,2,,,ChargePoint Network,https://www.chargepoint.com,GPS,38.913877,-94.65681,2025-07-17,61441,2025-07-17 00:47:56 UTC,,,,2014-04-23,,,,,J1772,US,,,,Public,,public,,,,,,,,,,,,,,,,,,,,,,,,,,,,,false,
ELEC,BLACK & VEATCH MAIN CAMPUS 3,6074-6460 W 115th St,In the south parking lot,Overland Park,KS,66211,,888-758-4389,E,,Public,24 hours daily,,,,,,2,,,ChargePoint Network,https://www.chargepoint.com,GPS,38.923103,-94.655835,2025-07-17,62904,2025-07-17 00:48:53 UTC,,,,2014-08-14,,,,,J1772,US,,,,Public,,public,,,,,,,,,,,,,,,,,,,,,,,,,,,,,false,
ELEC,Tradhuset,110 1/2 N Main St,NE of Main St and Lincoln St,Lindsborg,KS,67456,,,E,,Public,24 hours daily,D M V,,,,,1,,,Non-Networked,,GPS,38.573884,-97.675415,2024-11-06,63251,2025-02-12 00:16:32 UTC,P,,,2014-09-02,,,,,J1772,US,,,,Public,,public,,,HOTEL,,,,,,,Free,,,,,,,,,,false,,,,,,,,LD,false,
ELEC,Vetehuset,105 1/2 N Main St,NW of Main St and Lincoln St,Lindsborg,KS,67456,,,E,,Public,24 hours daily,D M V,,,,,1,,,Non-Networked,,GPS,38.573771,-97.676351,2024-11-06,63258,2025-02-12 00:16:32 UTC,P,,,2014-09-02,,,,,J1772,US,,,,Public,,public,,,HOTEL,,,,,,,Free,,,,,,,,,,false,,,,,,,,LD,false,
ELEC,Bob Allen Ford,9239 Metcalf Ave,Located on the south side near the entrance,Overland Park,KS,66212,,,E,,Public - Call ahead,Dealership business hours,,,,,,1,,,Non-Networked,,200-9,38.960921,-94.666648,2023-12-13,63805,2024-01-31 22:07:01 UTC,P,,,2013-07-15,,,,,J1772,US,,,,Public - Appeler à l'avance,,public,CALL,,CAR_DEALER,,,,,,,Free,,,,,,,,,,false,,,,,,,,LD,false,
ELEC,ASPIRIA GARAGE B,6141 Sprint Pkwy Garage B,1st floor next to electrical room,Overland Park,KS,66251,,888-758-4389,E,,Public,24 hours daily,,,,,,2,,,ChargePoint Network,https://www.chargepoint.com,GPS,38.917808,-94.656079,2025-07-17,63830,2025-07-17 00:47:45 UTC,,,,2014-10-22,,,,,J1772,US,,,,Public,,public,,,,,,,,,,,,,,,,,,,,,,,,,,,,,false,
ELEC,ASPIRIA GARAGE C,6111 Sprint Pkwy Garage C,1st floor next to the electrical room,Overland Park,KS,66251,,888-758-4389,E,,Public,24 hours daily,,,,,,2,,,ChargePoint Network,https://www.chargepoint.com,GPS,38.918823,-94.655719,2025-07-17,63831,2025-07-17 00:47:45 UTC,,,,2014-10-22,,,,,J1772,US,,,,Public,,public,,,,,,,,,,,,,,,,,,,,,,,,,,,,,false,
ELEC,ASPIRIA GARAGE O,6311 Sprint Pkwy Garage O,1st floor next to the electrical room,Overland Park,KS,66251,,888-758-4389,E,,Public,24 hours daily,,,,,,2,,,ChargePoint Network,https://www.chargepoint.com,GPS,38.913548,-94.661432,2025-07-17,63832,2025-07-17 00:47:45 UTC,,,,2014-10-22,,,,,J1772,US,,,,Public,,public,,,,,,,,,,,,,,,,,,,,,,,,,,,,,false,
ELEC,ASPIRIA GARAGE L,6371 Sprint Pkwy Garage L,1st floor next to electrical room,Overland Park,KS,66251,,888-758-4389,E,,Public,24 hours daily,,,,,,2,,,ChargePoint Network,https://www.chargepoint.com,GPS,38.915935,-94.661511,2025-07-17,63833,2025-07-17 00:47:45 UTC,,,,2014-10-22,,,,,J1772,US,,,,Public,,public,,,,,,,,,,,,,,,,,,,,,,,,,,,,,false,
ELEC,ASPIRIA GARAGE N,6331 Sprint Pkwy Garage N,1st floor next to electrical room,Overland Park,KS,66251,,888-758-4389,E,,Public,24 hours daily,,,,,,2,,,ChargePoint Network,https://www.chargepoint.com,GPS,38.914405,-94.66147,2025-07-17,63835,2025-07-17 00:47:47 UTC,,,,2014-10-22,,,,,J1772,US,,,,Public,,public,,,,,,,,,,,,,,,,,,,,,,,,,,,,,false,
ELEC,ASPIRIA GARAGE J,6491 Sprint Pkwy Garage J,1st floor next to electrical room,Overland Park,KS,66251,,888-758-4389,E,,Public,24 hours daily,,,,,,2,,,ChargePoint Network,https://www.chargepoint.com,GPS,38.918312,-94.660367,2025-07-17,63836,2025-07-17 00:47:47 UTC,,,,2014-10-22,,,,,J1772,US,,,,Public,,public,,,,,,,,,,,,,,,,,,,,,,,,,,,,,false,
ELEC,ASPIRIA GARAGE K,6431 Sprint Pkwy Garage K,1st floor next to electrical room,Overland Park,KS,66251,,888-758-4389,E,,Public,24 hours daily,,,,,,2,,,ChargePoint Network,https://www.chargepoint.com,GPS,38.917511,-94.66105,2025-07-17,63837,2025-07-17 00:47:56 UTC,,,,2014-10-22,,,,,J1772,US,,,,Public,,public,,,,,,,,,,,,,,,,,,,,,,,,,,,,,false,
ELEC,ASPIRIA GARAGE I,6511 Sprint Pkwy Garage I,1st floor next to the electrical room,Overland Park,KS,66251,,888-758-4389,E,,Public,24 hours daily,,,,,,2,,,ChargePoint Network,https://www.chargepoint.com,GPS,38.919937,-94.659703,2025-07-17,63838,2025-07-17 00:47:56 UTC,,,,2014-10-22,,,,,J1772,US,,,,Public,,public,,,,,,,,,,,,,,,,,,,,,,,,,,,,,false,
ELEC,ASPIRIA GARAGE M,6351 Sprint Pkwy Garage M,1st floor next to electrical room,Overland Park,KS,66251,,888-758-4389,E,,Public,24 hours daily,,,,,,2,,,ChargePoint Network,https://www.chargepoint.com,GPS,38.915042,-94.661404,2025-07-17,63839,2025-07-17 00:47:56 UTC,,,,2014-10-22,,,,,J1772,US,,,,Public,,public,,,,,,,,,,,,,,,,,,,,,,,,,,,,,false,
ELEC,Evergy - Hutchinson Energy Center,3200 E 30th,,Hutchinson,KS,67502,,,E,,Private,Fleet use only,,,,,,1,,,Non-Networked,,200-9,38.0902,-97.871451,2025-01-13,64538,2025-02-12 00:16:32 UTC,T,,,2013-12-01,,,,,J1772,US,,,,Privé,,private,,,UTILITY,,,,,,,,,,,,,,,,,,,,,,,,,,false,
ELEC,Evergy - Pittsburg Service Center,1909 S Olive St,Located southwest of offices,Pittsburg,KS,66762,,800-383-1183,E,,Public,24 hours daily,,,,,,1,,,Non-Networked,,200-8,37.386638,-94.710357,2025-01-13,64539,2025-02-12 00:16:32 UTC,T,,,2013-12-01,,,,,J1772,US,,,,Public,,public,,,UTILITY,,,,,,,Free,,,,,,,,,,false,,,,,,,,LD,false,
ELEC,Evergy - Parsons Service Center,2605 Flynn Dr,,Parsons,KS,67357,,,E,,Private,Fleet use only,,,,,,1,,,Non-Networked,,GPS,37.373189,-95.262514,2025-01-13,64540,2025-02-12 00:16:32 UTC,T,,,2013-12-01,,,,,J1772,US,,,,Privé,,private,,,UTILITY,,,,,,,,,,,,,,,,,,,,,,,,,,false,
ELEC,Evergy - Wichita System Control Center,777 W Central Ave,,Wichita,KS,67203,,,E,,Private,Fleet use only,,,,,,1,,,Non-Networked,,200-9,37.691343,-97.346264,2025-01-13,64541,2025-02-12 00:16:32 UTC,T,,,2013-12-01,,,,,J1772,US,,,,Privé,,private,,,UTILITY,,,,,,,,,,,,,,,,,,,,,,,,,,false,
ELEC,EVERGY @UNILEVER -013B,27080 W 159th St @ Unilever,In the south east corner of the main parking lot,New Century,KS,66031,,888-758-4389,E,,Public,24 hours daily,,,,,,2,,,ChargePoint Network,https://www.chargepoint.com,GPS,38.840185,-94.896529,2025-07-17,67076,2025-07-17 00:52:42 UTC,,,,2015-05-12,,,,,J1772,US,,,,Public,,public,,,,,,,,,,,,,,,,,,,,,,,,,,,,,false,
ELEC,EVERGY @WHOLE FOOD020C,14615 W 119th St @ Whole Foods,NE corner of parking lot along the main access drive,Olathe,KS,66062,,888-758-4389,E,,Public,24 hours daily,,,,,,2,,,ChargePoint Network,https://www.chargepoint.com,GPS,38.911861,-94.757144,2025-07-17,67984,2025-07-17 00:52:06 UTC,,,,2015-06-23,,,,,J1772,US,,,,Public,,public,,,,,,,,,,,,,,,,,,,,,,,,,,,,,false,
ELEC,EVERGY @HY-VEE -034B,13550 W 63rd St @ Hy-Vee,SE corner of Hy-Vee parking lot along Pflumm Rd.,Shawnee,KS,66216,,888-758-4389,E,,Public,24 hours daily,,,,,,2,,,ChargePoint Network,https://www.chargepoint.com,GPS,39.015219,-94.742718,2025-07-17,67991,2025-07-17 00:51:49 UTC,,,,2015-06-24,,,,,J1772,US,,,,Public,,public,,,,,,,,,,,,,,,,,,,,,,,,,,,,,false,
ELEC,EVERGY @GOLF COURS035B,17501 Midland Dr @ Tomahawk Hills Golf Course,Located on the east end of the clubhouse parking lot.,Shawnee,KS,66217,,888-758-4389,E,,Public,24 hours daily,,,,,,2,,,ChargePoint Network,https://www.chargepoint.com,GPS,38.999993,-94.790332,2025-07-17,67992,2025-07-17 00:51:57 UTC,,,,2015-06-24,,,,,J1772,US,,,,Public,,public,,,,,,,,,,,,,,,,,,,,,,,,,,,,,false,
ELEC,City of Derby - Aviator Church,200 W Greenway,Located at Greenway and K-15,Derby,KS,67037,,316-788-1519,E,,Public,24 hours daily,,,,,,1,,,Non-Networked,,GPS,37.557132,-97.27296,2023-01-10,68270,2023-02-14 15:54:11 UTC,P,,,2015-06-28,,,,,J1772,US,,,,Public,,public,,,PLACE_OF_WORSHIP,,,,,,,Free,,,,,,,,,,false,,,,,,,,LD,false,
ELEC,EVERGY @GREYSTONE-021C,12850 W 87th St Pkwy @ Greystone South Plaza,"Located in the Greystone South Plaza parking lot along 87th St Pkwy, near the Commerce Bank ATM.",Lenexa,KS,66215,,888-758-4389,E,,Public,24 hours daily,,,,,,2,,,ChargePoint Network,https://www.chargepoint.com,GPS,38.971296,-94.735494,2025-07-17,69072,2025-07-17 00:52:39 UTC,,,,2015-08-18,,,,,J1772,US,,,,Public,,public,,,,,,,,,,,,,,,,,,,,,,,,,,,,,false,
ELEC,EVERGY @SAMS CLUB-052B,12200 W 95th St @ Sams Club #8208,West side of the parking lot along Monrovia St.,Lenexa,KS,66215,,888-758-4389,E,,Public,24 hours daily,,,,,,2,,,ChargePoint Network,https://www.chargepoint.com,GPS,38.958287,-94.728159,2025-07-17,70709,2025-07-17 00:52:11 UTC,,,,2015-10-28,,,,,J1772,US,,,,Public,,public,,,,,,,,,,,,,,,,,,,,,,,,,,,,,false,
ELEC,EVERGY @MILL CRK- 042B,13438 W 62nd Ter @ Mill Creek Shopping Center,In front of CVS Pharmacy along 62nd Terrace.,Shawnee,KS,66216,,888-758-4389,E,,Public,24 hours daily,,,,,,2,,,ChargePoint Network,https://www.chargepoint.com,GPS,39.015511,-94.741467,2025-07-17,70712,2025-07-17 00:50:55 UTC,,,,2015-10-28,,,,,J1772,US,,,,Public,,public,,,,,,,,,,,,,,,,,,,,,,,,,,,,,false,
ELEC,EVERGY @WALMART -074C,11010 W 74th Ter @ Walmart #5308,Located at the west end of the parking lot along Nieman Rd.,Shawnee,KS,66203,,888-758-4389,E,,Public,24 hours daily,,,,,,2,,,ChargePoint Network,https://www.chargepoint.com,GPS,38.993727,-94.714237,2025-07-17,70782,2025-07-17 00:52:39 UTC,,,,2015-10-31,,,,,J1772,US,,,,Public,,public,,,,,,,,,,,,,,,,,,,,,,,,,,,,,false,
ELEC,EVERGY @WALMART -073C,18555 W 151st St @ Walmart #4198,NW corner of the parking lot,Olathe,KS,66062,,888-758-4389,E,,Public,24 hours daily,,,,,,2,,,ChargePoint Network,https://www.chargepoint.com,GPS,38.85368,-94.800392,2025-07-17,70790,2025-07-17 00:51:12 UTC,,,,2015-10-31,,,,,J1772,US,,,,Public,,public,,,,,,,,,,,,,,,,,,,,,,,,,,,,,false,
ELEC,EVERGY @LEAWD APT-078B,2140 W 137th Ter @ Leawood State Line Apts Cl,Parking lot to the west of the clubhouse,Leawood,KS,66224,,888-758-4389,E,,Public,24 hours daily,,,,,,2,,,ChargePoint Network,https://www.chargepoint.com,GPS,38.879357,-94.610454,2025-07-17,72516,2025-07-17 00:51:08 UTC,,,,2016-01-14,,,,,J1772,US,,,,Public,,public,,,,,,,,,,,,,,,,,,,,,,,,,,,,,false,
ELEC,EVERGY @ST LUKES -322C,12302 Metcalf Ave @ St Lukes Hospital -  Sout,Along Metcalf by Rehabilitation Service Bldg.,Overland Park,KS,66213,,888-758-4389,E,,Public,24 hours daily,,,,,,2,,,ChargePoint Network,https://www.chargepoint.com,GPS,38.903557,-94.668132,2025-07-17,73507,2025-07-17 00:56:48 UTC,,,,2016-02-12,,,,,J1772,US,,,,Public,,public,,,,,,,,,,,,,,,,,,,,,,,,,,,,,false,
ELEC,EVERGY @SCRIPTPRO-170B,5828 Reeds Rd @ ScriptPro,ScriptPro parking lot on east side of Maple St.,Mission,KS,66202,,888-758-4389,E,,Public,24 hours daily,,,,,,2,,,ChargePoint Network,https://www.chargepoint.com,GPS,39.022852,-94.649653,2025-07-17,74106,2025-07-17 00:56:49 UTC,,,,2016-03-11,,,,,J1772,US,,,,Public,,public,,,,,,,,,,,,,,,,,,,,,,,,,,,,,false,
ELEC,EVERGY @SCRIPTPRO-169C,5839 Woodson Rd @ ScriptPro,West Building Parking Lot along Woodson,Mission,KS,66202,,888-758-4389,E,,Public,24 hours daily,,,,,,2,,,ChargePoint Network,https://www.chargepoint.com,GPS,39.022757,-94.65315,2025-07-17,74107,2025-07-17 00:56:48 UTC,,,,2016-03-11,,,,,J1772,US,,,,Public,,public,,,,,,,,,,,,,,,,,,,,,,,,,,,,,false,
ELEC,EVERGY @EPA -174B,11201 Renner Blvd @ US Enviromental Protectio,North employee parking lot,Lenexa,KS,66219,,888-758-4389,E,,Public,24 hours daily,,,,,,2,,,ChargePoint Network,https://www.chargepoint.com,GPS,38.925706,-94.778285,2025-07-17,74334,2025-07-17 00:56:41 UTC,,,,2016-03-26,,,,,J1772,US,,,,Public,,public,,,,,,,,,,,,,,,,,,,,,,,,,,,,,false,
ELEC,EVERGY @PUB WKS -173C,1385 S Robinson Dr @ Olathe Public Works Adm.,Front parking lot,Olathe,KS,66061,,888-758-4389,E,,Public,24 hours daily,,,,,,2,,,ChargePoint Network,https://www.chargepoint.com,GPS,38.862891,-94.844309,2025-07-17,74366,2025-07-17 00:56:42 UTC,,,,2016-03-30,,,,,J1772,US,,,,Public,,public,,,,,,,,,,,,,,,,,,,,,,,,,,,,,false,
ELEC,EVERGY @BJKT PROF-175B,8629 Bluejacket St @ Bluejacket Professional,Located in the parking lot behind the Clinical Associates building.,Lenexa,KS,66214,,888-758-4389,E,,Public,24 hours daily,,,,,,2,,,ChargePoint Network,https://www.chargepoint.com,GPS,38.973013,-94.709895,2025-07-17,75109,2025-07-17 00:56:41 UTC,,,,2016-04-19,,,,,J1772,US,,,,Public,,public,,,,,,,,,,,,,,,,,,,,,,,,,,,,,false,
ELEC,EVERGY @HEND ENG-185C,8345 Lenexa Dr @ Henderson Engineers,Near the SE corner of the building.,Lenexa,KS,66214,,888-758-4389,E,,Public,24 hours daily,,,,,,2,,,ChargePoint Network,https://www.chargepoint.com,GPS,38.976503,-94.70949,2025-07-17,76238,2025-07-17 00:51:53 UTC,,,,2016-06-10,,,,,J1772,US,,,,Public,,public,,,,,,,,,,,,,,,,,,,,,,,,,,,,,false,
ELEC,EVERGY @COMFORTIN176B,7200 W 107th St @ Comfort Inn,NW corner of the Comfort Inn parking lot.,Overland Park,KS,66212,,888-758-4389,E,,Public,24 hours daily,,,,,,2,,,ChargePoint Network,https://www.chargepoint.com,GPS,38.935011,-94.670061,2025-07-17,77262,2025-07-17 00:51:56 UTC,,,,2016-08-03,,,,,J1772,US,,,,Public,,public,,,,,,,,,,,,,,,,,,,,,,,,,,,,,false,
ELEC,EVERGY @STOLL PRK-033C,12502 W 119th St @ Stoll Park,Located in the first parking lot on the right,Overland Park,KS,66210,,888-758-4389,E,,Public,24 hours daily,,,,,,2,,,ChargePoint Network,https://www.chargepoint.com,GPS,38.914861,-94.729875,2025-07-17,80245,2025-07-17 00:53:04 UTC,,,,2016-12-17,,,,,J1772,US,,,,Public,,public,,,,,,,,,,,,,,,,,,,,,,,,,,,,,false,
ELEC,EVERGY @BRILL -214C,5820 Lamar Ave @ Brill Eye Center,Front parking lot,Mission,KS,66202,,888-758-4389,E,,Public,24 hours daily,,,,,,2,,,ChargePoint Network,https://www.chargepoint.com,GPS,39.023411,-94.658695,2025-07-17,80246,2025-07-17 00:53:02 UTC,,,,2016-12-17,,,,,J1772,US,,,,Public,,public,,,,,,,,,,,,,,,,,,,,,,,,,,,,,false,
ELEC,EVERGY @HILTON GI-008B,12078 S Strang Line Rd @ Hilton Garden Inn,North side of building between the Hilton Inn and Holiday Inn Express,Olathe,KS,66062,,888-758-4389,E,,Public,24 hours daily,,,,,,2,,,ChargePoint Network,https://www.chargepoint.com,GPS,38.911516,-94.769671,2025-07-17,80247,2025-07-17 00:52:47 UTC,,,,2016-12-17,,,,,J1772,US,,,,Public,,public,,,,,,,,,,,,,,,,,,,,,,,,,,,,,false,
ELEC,EVERGY @K-STATE -011C,22199 W Innovation Dr @ K-State Olathe,Located in the K-State parking lot at the Kansas Bioscience Park,Olathe,KS,66061,,888-758-4389,E,,Public,24 hours daily,,,,,,2,,,ChargePoint Network,https://www.chargepoint.com,GPS,38.929354,-94.842645,2025-07-17,80248,2025-07-17 00:52:47 UTC,,,,2016-12-17,,,,,J1772,US,,,,Public,,public,,,,,,,,,,,,,,,,,,,,,,,,,,,,,false,
ELEC,EVERGY @HERITG PRK012C,13915 W 159th Ter @ Heritage Park,Located in the marina parking lot,Olathe,KS,66062,,888-758-4389,E,,Public,24 hours daily,,,,,,2,,,ChargePoint Network,https://www.chargepoint.com,GPS,38.835675,-94.746695,2025-07-17,80249,2025-07-17 00:52:33 UTC,,,,2016-12-17,,,,,J1772,US,,,,Public,,public,,,,,,,,,,,,,,,,,,,,,,,,,,,,,false,
ELEC,EVERGY @ARVEST BNK009B,6302 Nall Ave @ Arvest Bank,In the bank parking lot,Mission,KS,66202,,888-758-4389,E,,Public,24 hours daily,,,,,,2,,,ChargePoint Network,https://www.chargepoint.com,GPS,39.014923,-94.650332,2025-07-17,80250,2025-07-17 00:52:46 UTC,,,,2016-12-17,,,,,J1772,US,,,,Public,,public,,,,,,,,,,,,,,,,,,,,,,,,,,,,,false,
ELEC,EVERGY @WHOLE FOOD112C,6623 W 119th St @ Whole Foods-119th St,Located near the SW corner of the building.,Overland Park,KS,66209,,888-758-4389,E,,Public,24 hours daily,,,,,,2,,,ChargePoint Network,https://www.chargepoint.com,GPS,38.911443,-94.662448,2025-07-17,80252,2025-07-17 00:52:45 UTC,,,,2016-12-17,,,,,J1772,US,,,,Public,,public,,,,,,,,,,,,,,,,,,,,,,,,,,,,,false,
ELEC,EVERGY @WALMART -067C,7703 E Frontage Rd @ Walmart #1691,Located in the Walmart parking lot near the westernmost entrance.,Overland Park,KS,66204,,888-758-4389,E,,Public,24 hours daily,,,,,,2,,,ChargePoint Network,https://www.chargepoint.com,GPS,38.988966,-94.699782,2025-07-17,80254,2025-07-17 00:52:43 UTC,,,,2016-12-17,,,,,J1772,US,,,,Public,,public,,,,,,,,,,,,,,,,,,,,,,,,,,,,,false,
ELEC,EVERGY @HY-VEE -003B,8503 W 95th St @ Hy-Vee #1,In the SE corner of the Hy-Vee parking lot.,Overland Park,KS,66212,,888-758-4389,E,,Public,24 hours daily,,,,,,2,,,ChargePoint Network,https://www.chargepoint.com,GPS,38.955167,-94.684244,2025-07-17,80255,2025-07-17 00:52:42 UTC,,,,2016-12-17,,,,,J1772,US,,,,Public,,public,,,,,,,,,,,,,,,,,,,,,,,,,,,,,false,
ELEC,EVERGY @HY-VEE -007B,8902 W 135th St @ Hy-Vee #2,"Located on the east edge of the Hy-Vee parking lot, near McDonald's.",Overland Park,KS,66221,,888-758-4389,E,,Public,24 hours daily,,,,,,2,,,ChargePoint Network,https://www.chargepoint.com,GPS,38.885008,-94.687545,2025-07-17,80256,2025-07-17 00:52:41 UTC,,,,2016-12-17,,,,,J1772,US,,,,Public,,public,,,,,,,,,,,,,,,,,,,,,,,,,,,,,false,
ELEC,EVERGY @B&V ENG -302B,11407 Lamar Ave @ Black and Veatch,In North Parking Lot along 112th,Overland Park,KS,66211,,888-758-4389,E,,Public,24 hours daily,,,,,,2,,,ChargePoint Network,https://www.chargepoint.com,GPS,38.92563,-94.655413,2025-07-17,80258,2025-07-17 00:52:39 UTC,,,,2016-12-17,,,,,J1772,US,,,,Public,,public,,,,,,,,,,,,,,,,,,,,,,,,,,,,,false,
ELEC,EVERGY @B&V ENG -303C,11411 Lamar Ave @ Black and Veatch,In West Parking Lot along Lamar,Overland Park,KS,66211,,888-758-4389,E,,Public,24 hours daily,,,,,,2,,,ChargePoint Network,https://www.chargepoint.com,GPS,38.924411,-94.657827,2025-07-17,80259,2025-07-17 00:52:38 UTC,,,,2016-12-17,,,,,J1772,US,,,,Public,,public,,,,,,,,,,,,,,,,,,,,,,,,,,,,,false,
ELEC,EVERGY @GOLF COURS017A,16451 Constance St @ Heritage Park Golf Cours,Located in the clubhouse parking lot,Olathe,KS,66062,,888-758-4389,E,,Public,24 hours daily,,,,,,2,,,ChargePoint Network,https://www.chargepoint.com,GPS,38.830136,-94.75812,2025-07-17,80262,2025-07-17 00:52:24 UTC,,,,2016-12-17,,,,,J1772,US,,,,Public,,public,,,,,,,,,,,,,,,,,,,,,,,,,,,,,false,
ELEC,EVERGY @SAMS CLUB-050B,8314 W 135th St @ Sams Club #4707,South end of Sam's Club parking lot near Salty Iguana.,Overland Park,KS,66223,,888-758-4389,E,,Public,24 hours daily,,,,,,2,,,ChargePoint Network,https://www.chargepoint.com,GPS,38.884808,-94.683624,2025-07-17,80264,2025-07-17 00:52:10 UTC,,,,2016-12-17,,,,,J1772,US,,,,Public,,public,,,,,,,,,,,,,,,,,,,,,,,,,,,,,false,
ELEC,EVERGY @HY-VEE -010A,6657 Martway St @ Hy-Vee,Located on the west side of the Hy-Vee parking lot near the gas station.,Mission,KS,66202,,888-758-4389,E,,Public,24 hours daily,,,,,,2,,,ChargePoint Network,https://www.chargepoint.com,GPS,39.019948,-94.662804,2025-07-17,80265,2025-07-17 00:52:04 UTC,,,,2016-12-17,,,,,J1772,US,,,,Public,,public,,,,,,,,,,,,,,,,,,,,,,,,,,,,,false,
ELEC,EVERGY @KU EDWRD -155A,12602 Quivira Rd @ KU Edwards Campus,EVCS is located in the Edwards Campus parking lot behind the Phillips 66 on Quivira.,Overland Park,KS,66213,,888-758-4389,E,,Public,24 hours daily,,,,,,2,,,ChargePoint Network,https://www.chargepoint.com,GPS,38.90047,-94.724896,2025-07-17,80269,2025-07-17 00:51:58 UTC,,,,2016-12-17,,,,,J1772,US,,,,Public,,public,,,,,,,,,,,,,,,,,,,,,,,,,,,,,false,
ELEC,EVERGY @WALMART -066A,11703 Metcalf Ave @ Walmart #1599,EVCS located at the back of the Walmart parking lot near K Macho's and Old Chicago.,Overland Park,KS,66210,,888-758-4389,E,,Public,24 hours daily,,,,,,2,,,ChargePoint Network,https://www.chargepoint.com,GPS,38.914908,-94.666271,2025-07-17,80276,2025-07-17 00:51:23 UTC,,,,2016-12-17,,,,,J1772,US,,,,Public,,public,,,,,,,,,,,,,,,,,,,,,,,,,,,,,false,
ELEC,EVERGY @CORP WOOD-140A,9407 Indian Creek Pkwy @ Corp. Woods (Bldg. #,Located on the south side of building 40.,Overland Park,KS,66210,,888-758-4389,E,,Public,24 hours daily,,,,,,2,,,ChargePoint Network,https://www.chargepoint.com,GPS,38.930634,-94.695286,2025-07-17,80277,2025-07-17 00:51:19 UTC,,,,2016-12-17,,,,,J1772,US,,,,Public,,public,,,,,,,,,,,,,,,,,,,,,,,,,,,,,false,
ELEC,EVERGY @CORP WOOD-135A,10954 Grandview Dr @ Corp. Woods (Bldg #34),Building 34; SW corner of parking lot,Overland Park,KS,66210,,888-758-4389,E,,Public,24 hours daily,,,,,,2,,,ChargePoint Network,https://www.chargepoint.com,GPS,38.928633,-94.692706,2025-07-17,80279,2025-07-17 00:51:18 UTC,,,,2016-12-17,,,,,J1772,US,,,,Public,,public,,,,,,,,,,,,,,,,,,,,,,,,,,,,,false,
ELEC,EVERGY @KOHLS -145C,16244 W 135th St @ Kohls,In front of the store near the parking lot entrance on Brougham.,Olathe,KS,66062,,888-758-4389,E,,Public,24 hours daily,,,,,,2,,,ChargePoint Network,https://www.chargepoint.com,GPS,38.88459,-94.773434,2025-07-17,80280,2025-07-17 00:51:18 UTC,,,,2016-12-17,,,,,J1772,US,,,,Public,,public,,,,,,,,,,,,,,,,,,,,,,,,,,,,,false,
ELEC,EVERGY @CORP WOOD-136A,8902 Indian Creek Pkwy @ Corp. Woods (Bldg. #,Building 6; NW parking lot.,Overland Park,KS,66210,,888-758-4389,E,,Public,24 hours daily,,,,,,2,,,ChargePoint Network,https://www.chargepoint.com,GPS,38.933212,-94.690097,2025-07-17,80284,2025-07-17 00:50:28 UTC,,,,2016-12-17,,,,,J1772,US,,,,Public,,public,,,,,,,,,,,,,,,,,,,,,,,,,,,,,false,
ELEC,EVERGY @WADELREED-045C,6314 Lamar Ave @ Waddell & Reed Park,Located in the east parking lot along Lamar near the 6310 bldg.,Overland Park,KS,66202,,888-758-4389,E,,Public,24 hours daily,,,,,,2,,,ChargePoint Network,https://www.chargepoint.com,GPS,39.012659,-94.658598,2025-07-17,80285,2025-07-17 00:50:55 UTC,,,,2016-12-17,,,,,J1772,US,,,,Public,,public,,,,,,,,,,,,,,,,,,,,,,,,,,,,,false,
ELEC,EVERGY @ROSANA SQ-304C,11626 Metcalf Ave @ Rosana Square,In the Mardel Parking Lot,Overland Park,KS,66213,,888-758-4389,E,,Public,24 hours daily,,,,,,2,,,ChargePoint Network,https://www.chargepoint.com,GPS,38.915355,-94.669381,2025-07-17,80461,2025-07-17 00:51:59 UTC,,,,2016-12-30,,,,,J1772,US,,,,Public,,public,,,,,,,,,,,,,,,,,,,,,,,,,,,,,false,
ELEC,EVERGY @SHMSN MED-255B,23401 Prairie Star Pkwy @ Shawnee Mission Med,Parking lot outside of building A,Lenexa,KS,66227,,888-758-4389,E,,Public,24 hours daily,,,,,,2,,,ChargePoint Network,https://www.chargepoint.com,GPS,38.955288,-94.8555,2025-07-17,80826,2025-07-17 00:51:44 UTC,,,,2017-01-10,,,,,J1772,US,,,,Public,,public,,,,,,,,,,,,,,,,,,,,,,,,,,,,,false,
ELEC,EVERGY @ROSANA SQ-305C,7582 W 119th St @ Rosana Square,Located at the south end of the Price Chopper parking lot near Overland Park Eye Center and Goodcents.,Overland Park,KS,66213,,888-758-4389,E,,Public,24 hours daily,,,,,,2,,,ChargePoint Network,https://www.chargepoint.com,GPS,38.913757,-94.672032,2025-07-17,81551,2025-07-17 00:51:59 UTC,,,,2017-02-25,,,,,J1772,US,,,,Public,,public,,,,,,,,,,,,,,,,,,,,,,,,,,,,,false,
ELEC,EVERGY @FIELDHOUS-016A,551 New Century Pkwy @ New Century Field Hous,Located on the south side of the building.,New Century,KS,66031,,888-758-4389,E,,Public,24 hours daily,,,,,,2,,,ChargePoint Network,https://www.chargepoint.com,GPS,38.818279,-94.903358,2025-07-17,82095,2025-07-17 00:52:25 UTC,,,,2017-03-28,,,,,J1772,US,,,,Public,,public,,,,,,,,,,,,,,,,,,,,,,,,,,,,,false,
ELEC,EVERGY @CITY CNTR-258A,8800 Penrose Ln @ EPC District at City Center,Parking garage Level 1. spaces 104 -109,Lenexa,KS,66219,,888-758-4389,E,,Public,24 hours daily,,,,,,2,,,ChargePoint Network,https://www.chargepoint.com,GPS,38.968942,-94.783874,2025-07-17,82276,2025-07-17 00:56:56 UTC,,,,2017-04-12,,,,,J1772,US,,,,Public,,public,,,,,,,,,,,,,,,,,,,,,,,,,,,,,false,
ELEC,EVERGY @LFTD LGC-168B,10263 W 87th St @ Lifted Logic,Parking lot on the west side of the building along Switzer Rd.,Overland Park,KS,66214,,888-758-4389,E,,Public,24 hours daily,,,,,,2,,,ChargePoint Network,https://www.chargepoint.com,GPS,38.970545,-94.704798,2025-07-17,87404,2025-07-17 00:56:36 UTC,,,,2017-09-06,,,,,J1772,US,,,,Public,,public,,,,,,,,,,,,,,,,,,,,,,,,,,,,,false,
ELEC,EVERGY @SMSD C4AA-226B,8202 W 71st St @ SMSD CENTER FOR ACADEMIC ACH,Front parking lot,Overland Park,KS,66204,,888-758-4389,E,,Public,24 hours daily,,,,,,2,,,ChargePoint Network,https://www.chargepoint.com,GPS,39.001234,-94.680695,2025-07-17,87420,2025-07-17 00:56:43 UTC,,,,2017-09-07,,,,,J1772,US,,,,Public,,public,,,,,,,,,,,,,,,,,,,,,,,,,,,,,false,
ELEC,EVERGY @QUINTILES-162B,6702 W 115th St @ Quintiles,East parking lot at Quintiles.,Overland Park,KS,66211,,888-758-4389,E,,Public,24 hours daily,,,,,,2,,,ChargePoint Network,https://www.chargepoint.com,GPS,38.921528,-94.660578,2025-07-17,87423,2025-07-17 00:56:48 UTC,,,,2017-09-07,,,,,J1772,US,,,,Public,,public,,,,,,,,,,,,,,,,,,,,,,,,,,,,,false,
ELEC,EVERGY @WOODSIDE-213B,2200 W 47th Pl @ Woodside Apartments,In the parking garage,Westwood,KS,66205,,888-758-4389,E,,Public,24 hours daily,,,,,,2,,,ChargePoint Network,https://www.chargepoint.com,GPS,39.043266,-94.610969,2025-07-17,87427,2025-07-17 00:53:05 UTC,,,,2017-09-07,,,,,J1772,US,,,,Public,,public,,,,,,,,,,,,,,,,,,,,,,,,,,,,,false,
ELEC,EVERGY @SHMSN PRK-043B,18531 W 79th St @ Shawnee Mission Park Marina,Marina parking lot,Shawnee,KS,66218,,888-758-4389,E,,Public,24 hours daily,,,,,,2,,,ChargePoint Network,https://www.chargepoint.com,GPS,38.988102,-94.799655,2025-07-17,87433,2025-07-17 00:50:50 UTC,,,,2017-09-07,,,,,J1772,US,,,,Public,,public,,,,,,,,,,,,,,,,,,,,,,,,,,,,,false,
ELEC,EVERGY @WOODSIDE-215B,4705 Rainbow Blvd @ Woodside Apartments,Retail parking lot on the east side,Westwood,KS,66205,,888-758-4389,E,,Public,24 hours daily,,,,,,2,,,ChargePoint Network,https://www.chargepoint.com,GPS,39.043861,-94.611233,2025-07-17,87436,2025-07-17 00:51:52 UTC,,,,2017-09-07,,,,,J1772,US,,,,Public,,public,,,,,,,,,,,,,,,,,,,,,,,,,,,,,false,
ELEC,EVERGY @PRESBY CH-187B,9902 Mission Rd @ Village Presbyterian Church,Front parking lot along Mission Rd.,Overland Park,KS,66207,,888-758-4389,T,2025-05-20,TEMPORARILY UNAVAILABLE (Public),24 hours daily,,,,,,2,,,ChargePoint Network,https://www.chargepoint.com,GPS,38.948572,-94.63136,2025-07-17,87441,2025-07-17 00:51:16 UTC,,,,2017-09-07,,,,,J1772,US,,,,TEMPORAIREMENT SUSPENDU (Public),,public,,,,,,,,,,,,,,,,,,,,,,,,,,,,,false,
ELEC,EVERGY @JEWISH FS-220A,5803 W 115th St @ Jewish Family Services of K,West parking lot by the tennis courts,Overland Park,KS,66251,,888-758-4389,E,,Public,24 hours daily,,,,,,2,,,ChargePoint Network,https://www.chargepoint.com,GPS,38.917027,-94.65483,2025-07-17,87587,2025-07-17 00:56:57 UTC,,,,2017-09-13,,,,,J1772,US,,,,Public,,public,,,,,,,,,,,,,,,,,,,,,,,,,,,,,false,
ELEC,EVERGY @JCCC -025B,21151 W 152nd St @ Johnson Co. Community Coll,North of building in circular parking area off of 152nd St.,Olathe,KS,66062,,888-758-4389,E,,Public,24 hours daily,,,,,,2,,,ChargePoint Network,https://www.chargepoint.com,GPS,38.852909,-94.83035,2025-07-17,87590,2025-07-17 00:56:43 UTC,,,,2017-09-13,,,,,J1772,US,,,,Public,,public,,,,,,,,,,,,,,,,,,,,,,,,,,,,,false,
ELEC,EVERGY @MENORH MED163C,5739 W 119th St @ Menorah Medical Center,Employee parking lot off 119th St. by Mid America Surgery Institute entrance.,Overland Park,KS,66209,,888-758-4389,E,,Public,24 hours daily,,,,,,2,,,ChargePoint Network,https://www.chargepoint.com,GPS,38.912532,-94.650993,2025-07-17,87592,2025-07-17 00:53:07 UTC,,,,2017-09-13,,,,,J1772,US,,,,Public,,public,,,,,,,,,,,,,,,,,,,,,,,,,,,,,false,
ELEC,EVERGY @KC ORTHO -005B,3691 College Blvd @ KC Orthopedic Inst,In NW corner of parking lot along College Blvd.,Leawood,KS,66211,,888-758-4389,E,,Public,24 hours daily,,,,,,2,,,ChargePoint Network,https://www.chargepoint.com,GPS,38.927353,-94.628428,2025-07-17,87597,2025-07-17 00:52:40 UTC,,,,2017-09-13,,,,,J1772,US,,,,Public,,public,,,,,,,,,,,,,,,,,,,,,,,,,,,,,false,
ELEC,EVERGY @PARKEDGE -048B,8133 Renner Blvd @ Park Edge Apartments,Located next to building 8135.,Lenexa,KS,66219,,888-758-4389,E,,Public,24 hours daily,,,,,,2,,,ChargePoint Network,https://www.chargepoint.com,GPS,38.980885,-94.777979,2025-07-17,87604,2025-07-17 00:51:25 UTC,,,,2017-09-13,,,,,J1772,US,,,,Public,,public,,,,,,,,,,,,,,,,,,,,,,,,,,,,,false,
ELEC,EVERGY @JCCC -024A,12343 College Blvd @ Johnson Co. Community Co,Located at the west end of the Gym parking lot near the tennis courts.,Overland Park,KS,66210,,888-758-4389,E,,Public,24 hours daily,,,,,,2,,,ChargePoint Network,https://www.chargepoint.com,GPS,38.923671,-94.733535,2025-07-17,87605,2025-07-17 00:51:18 UTC,,,,2017-09-13,,,,,J1772,US,,,,Public,,public,,,,,,,,,,,,,,,,,,,,,,,,,,,,,false,
ELEC,EVERGY @ARVEST BNK006B,7403 W 135th St @ Arvest Bank,In the SW corner of the Arvest parking lot.,Overland Park,KS,66223,,888-758-4389,T,2025-07-15,TEMPORARILY UNAVAILABLE (Public),24 hours daily,,,,,,2,,,ChargePoint Network,https://www.chargepoint.com,GPS,38.88283,-94.672675,2025-07-17,87625,2025-07-17 00:52:40 UTC,,,,2017-09-14,,,,,J1772,US,,,,TEMPORAIREMENT SUSPENDU (Public),,public,,,,,,,,,,,,,,,,,,,,,,,,,,,,,false,
ELEC,EVERGY @CHELEPIS -211A,8302 College Blvd @ Chelepis & Associates,South side parking lot,Overland Park,KS,66210,,888-758-4389,E,,Public,24 hours daily,,,,,,2,,,ChargePoint Network,https://www.chargepoint.com,GPS,38.927974,-94.681438,2025-07-17,87627,2025-07-17 00:52:19 UTC,,,,2017-09-14,,,,,J1772,US,,,,Public,,public,,,,,,,,,,,,,,,,,,,,,,,,,,,,,false,
ELEC,EVERGY @BNK OF AM-212B,8679 College Blvd @ Bank of America,Parking lot along Antioch on the south side of Bank of America,Overland Park,KS,66210,,888-758-4389,E,,Public,24 hours daily,,,,,,2,,,ChargePoint Network,https://www.chargepoint.com,GPS,38.926466,-94.685957,2025-07-17,87633,2025-07-17 00:51:23 UTC,,,,2017-09-14,,,,,J1772,US,,,,Public,,public,,,,,,,,,,,,,,,,,,,,,,,,,,,,,false,
ELEC,EVERGY @CORP WOOD-139A,10979 Benson Dr @ Corp. Woods (Bldg. #12),Building 12; West parking lot near the front entrance.,Overland Park,KS,66210,,888-758-4389,E,,Public,24 hours daily,,,,,,2,,,ChargePoint Network,https://www.chargepoint.com,GPS,38.930666,-94.687971,2025-07-17,87635,2025-07-17 00:51:17 UTC,,,,2017-09-14,,,,,J1772,US,,,,Public,,public,,,,,,,,,,,,,,,,,,,,,,,,,,,,,false,
ELEC,EVERGY @CORP WOOD-137B,10855 Mastin St @ Corp. Woods (Bldg #82),Charging station is located near the SE corner of Building 82.,Overland Park,KS,66210,,888-758-4389,E,,Public,24 hours daily,,,,,,2,,,ChargePoint Network,https://www.chargepoint.com,GPS,38.93133,-94.701461,2025-07-17,87641,2025-07-17 00:50:28 UTC,,,,2017-09-14,,,,,J1772,US,,,,Public,,public,,,,,,,,,,,,,,,,,,,,,,,,,,,,,false,
ELEC,Oasis Travel Plaza - Tesla Supercharger,700 E Horton Ave.,,Colby,KS,67701,,877-798-3752,E,,Public,24 hours daily. Please check Tesla's online station map to see if an adapter is required at this location.,,,,,,,10,,Tesla,https://www.tesla.com/supercharger,200-9,39.361344,-101.054067,2024-07-01,102178,2025-05-06 21:07:47 UTC,P,,,2018-07-23,,,,,TESLA,US,,,,Public,,public,,,,,,,,,,,,,,,,,,,,,,,,,,,,,false,
ELEC,Holiday Inn Express - Tesla Supercharger,2631 Enterprise Rd,,Goodland,KS,67735,,877-798-3752,E,,Public,24 hours daily. Please check Tesla's online station map to see if an adapter is required at this location.,,,,,,,6,,Tesla,https://www.tesla.com/supercharger,200-8,39.326258,-101.725107,2024-07-01,102179,2025-05-06 21:07:47 UTC,P,,,2014-06-15,,,,,TESLA,US,,,,Public,,public,,,,,,,,,,,,,,,,,,,,,,,,,,,,,false,
ELEC,Applebee's - Tesla Supercharger,4101 Vine St,,Hays,KS,67601,,877-798-3752,E,,Public,24 hours daily. Please check Tesla's online station map to see if an adapter is required at this location.,,,,,,,6,,Tesla,https://www.tesla.com/supercharger,200-9,38.900543,-99.319142,2024-07-01,102180,2025-05-06 21:07:47 UTC,P,,,2014-06-15,,,,,TESLA,US,,,,Public,,public,,,,,,,,,,,,,,,,,,,,,,,,,,,,,false,
ELEC,Holiday Inn Express - Tesla Supercharger,755 W. Diamond Dr.,,Salina,KS,67401,,877-798-3752,E,,Public,24 hours daily. Please check Tesla's online station map to see if an adapter is required at this location.,,,,,,,6,,Tesla,https://www.tesla.com/supercharger,200-9,38.877342,-97.618699,2024-07-01,102181,2025-05-06 21:07:47 UTC,P,,,2014-07-01,,,,,TESLA,US,,,,Public,,public,,,,,,,,,,,,,,,,,,,,,,,,,,,,,false,
ELEC,Arby's - Tesla Supercharger,5930 SW Huntoon St,,Topeka,KS,66604,,877-798-3752,E,,Public,24 hours daily. Please check Tesla's online station map to see if an adapter is required at this location.,,,,,,,8,,Tesla,https://www.tesla.com/supercharger,200-9,39.04438,-95.760267,2024-07-01,102182,2025-05-06 21:07:47 UTC,P,,,2015-01-01,,,,,TESLA,US,,,,Public,,public,,,,,,,,,,,,,,,,,,,,,,,,,,,,,false,
ELEC,Applebee's - Tesla Supercharger,4760 S. Broadway Street,,Wichita,KS,67216,,877-798-3752,E,,Public,24 hours daily. Please check Tesla's online station map to see if an adapter is required at this location.,,,,,,,6,,Tesla,https://www.tesla.com/supercharger,200-9,37.60878,-97.33314,2024-07-01,102183,2025-05-06 21:07:47 UTC,P,,,2015-02-01,,,,,TESLA,US,,,,Public,,public,,,,,,,,,,,,,,,,,,,,,,,,,,,,,false,
ELEC,Fort Leavenworth,851 Riley Ave,,Fort Leavenworth,KS,66027,,,E,,Private,,,,,,,1,,,Non-Networked,,GPS,39.361578,-94.920141,2022-10-11,102641,2025-02-12 00:16:32 UTC,FG,6,Department of Army,2018-09-01,,,,,J1772,US,,,,Privé,,private,,DA,MIL_BASE,,,,,,,,,,,,,,,,,,,,,,,,,,false,
ELEC,EVERGY @CITY HALL-326A,4600 W 51st St @ Roeland Park City Hall,East side of City Hall,Roeland Park,KS,66205,,888-758-4389,E,,Public,24 hours daily,,,,,,2,,,ChargePoint Network,https://www.chargepoint.com,GPS,39.036762,-94.637976,2025-07-17,105001,2025-07-17 00:52:28 UTC,,,,2018-11-29,,,,,J1772,US,,,,Public,,public,,,,,,,,,,,,,,,,,,,,,,,,,,,,,false,
ELEC,EVERGY @ANTIOC PRK018B,6501 Antioch Rd @ Antioch Park,In front of the Registration and Recreation building,Merriam,KS,66202,,888-758-4389,E,,Public,24 hours daily,,,,,,2,,,ChargePoint Network,https://www.chargepoint.com,GPS,39.010584,-94.682117,2025-07-17,105167,2025-07-17 00:51:48 UTC,,,,2018-12-11,,,,,J1772,US,,,,Public,,public,,,,,,,,,,,,,,,,,,,,,,,,,,,,,false,
ELEC,Boot Hill Distillery - Tesla Destination,501 W Spruce St,,Dodge City,KS,67801,,877-798-3752,E,,Public,,,,,,,3,,,Tesla Destination,https://www.tesla.com/destination-charging,200-8,37.754546,-100.021371,2024-07-01,114252,2025-02-12 00:16:32 UTC,P,,,2017-01-27,,,,,TESLA,US,,,,Public,,public,,,BREWERY_DISTILLERY_WINERY,,,,,,,Free,,,,,,,,,,,,,,,,,,,false,
ELEC,The Big Well Museum Visitor Info Center Greensburg - Tesla Destination,315 S Sycamore St,,Greensburg,KS,67054,,877-798-3752,E,,Public,,,,,,,6,,,Tesla Destination,https://www.tesla.com/destination-charging,200-9,37.603917,-99.294828,2024-07-01,114253,2025-02-12 00:16:32 UTC,P,,,2018-08-15,,,,,J1772 TESLA,US,,,,Public,,public,,,MUSEUM,,,,,,,Free,,,,,,,,,,,,,,,,,,,false,
ELEC,Hampton Inn Hays - Tesla Destination,4002 General Hays Rd,,Hays,KS,67601,,877-798-3752,E,,Public,,,,,,,2,,,Tesla Destination,https://www.tesla.com/destination-charging,200-9,38.898222,-99.314754,2024-07-01,114254,2025-02-12 00:16:32 UTC,P,,,2015-12-07,,,,,TESLA,US,,,,Public,,public,,,HOTEL,,,,,,,Free,,,,,,,,,,,,,,,,,,,false,
ELEC,Golden Eagle Casino - Tesla Destination,1121 Goldfinch Rd,,Horton,KS,66439,,877-798-3752,E,,Public,,,,,,,3,,,Tesla Destination,https://www.tesla.com/destination-charging,200-8,39.669837,-95.639144,2024-07-01,114255,2025-02-12 00:16:32 UTC,P,,,2016-10-18,,,,,J1772 TESLA,US,,,,Public,,public,,,OTHER_ENTERTAINMENT,,,,,,,Free,,,,,,,,,,,,,,,,,,,false,
ELEC,Homewood Suites by Hilton Kansas City Speedway - Tesla Destination,10922 Parallel Pkwy,,Kansas City,KS,66109,,877-798-3752,E,,Public,,,,,,,3,,,Tesla Destination,https://www.tesla.com/destination-charging,200-9,39.130848,-94.832581,2024-07-01,114256,2025-02-12 00:16:32 UTC,P,,,2018-07-20,,,,,J1772 TESLA,US,,,,Public,,public,,,HOTEL,,,,,,,Free,,,,,,,,,,,,,,,,,,,false,
ELEC,Grinders High Noon - Tesla Destination,206 Choctaw St,,Leavenworth,KS,66048,,877-798-3752,E,,Public,,,,,,,1,,,Tesla Destination,https://www.tesla.com/destination-charging,200-8,39.317051,-94.910835,2024-07-01,114257,2025-02-12 00:16:32 UTC,P,,,2015-12-01,,,,,TESLA,US,,,,Public,,public,,,RESTAURANT,,,,,,,Free,,,,,,,,,,,,,,,,,,,false,
ELEC,Home2 Suites by Hilton Leavenworth Downtown - Tesla Destination,250 Delaware St,,Leavenworth,KS,66048,,877-798-3752,E,,Public,,,,,,,4,,,Tesla Destination,https://www.tesla.com/destination-charging,200-9,39.318675,-94.911494,2024-07-01,114258,2025-02-12 00:16:32 UTC,P,,,2018-01-10,,,,,J1772 TESLA,US,,,,Public,,public,,,HOTEL,,,,,,,Free,,,,,,,,,,,,,,,,,,,false,
ELEC,Grinders Stonewall - Tesla Destination,10240 Pflumm Rd,,Lenexa,KS,66215,,877-798-3752,E,,Public,,,,,,,1,,,Tesla Destination,https://www.tesla.com/destination-charging,200-9,38.942422,-94.742624,2024-07-01,114259,2025-02-12 00:16:32 UTC,P,,,2015-12-01,,,,,TESLA,US,,,,Public,,public,,,RESTAURANT,,,,,,,Free,,,,,,,,,,,,,,,,,,,false,
ELEC,Hampton Inn & Suites Liberal - Tesla Destination,508 Hotel Dr,,Liberal,KS,67901,,877-798-3752,E,,Public,,,,,,,6,,,Tesla Destination,https://www.tesla.com/destination-charging,200-9,37.03072,-100.914859,2024-07-01,114260,2025-02-12 00:16:32 UTC,P,,,2018-04-17,,,,,J1772 TESLA,US,,,,Public,,public,,,HOTEL,,,,,,,Free,,,,,,,,,,,,,,,,,,,false,
ELEC,Hampton Inn & Suites Pittsburg Kansas Crossing - Tesla Destination,1285 S Hwy 69,,Pittsburg,KS,66762,,877-798-3752,E,,Public,,,,,,,2,,,Tesla Destination,https://www.tesla.com/destination-charging,GPS,37.343055,-94.709305,2024-07-01,114261,2025-02-12 00:16:32 UTC,P,,,2018-05-31,,,,,TESLA,US,,,,Public,,public,,,HOTEL,,,,,,,Free,,,,,,,,,,,,,,,,,,,false,
ELEC,Altenhofen Inn & Suites - Tesla Destination,1615 North St,,Seneca,KS,66538,,877-798-3752,E,,Public,,,,,,,4,,,Tesla Destination,https://www.tesla.com/destination-charging,200-9,39.842003,-96.077978,2024-07-01,114262,2025-02-12 00:16:32 UTC,P,,,2017-12-11,,,,,J1772 TESLA,US,,,,Public,,public,,,INN,,,,,,,Free,,,,,,,,,,,,,,,,,,,false,
ELEC,Hyatt Regency Wichita - Tesla Destination,400 W Waterman St,,Wichita,KS,67202,,877-798-3752,E,,Public,,,,,,,1,,,Tesla Destination,https://www.tesla.com/destination-charging,200-9,37.682837,-97.341229,2024-07-01,114263,2025-02-12 00:16:32 UTC,P,,,2015-01-01,,,,,TESLA,US,,,,Public,,public,,,HOTEL,,,,,,,Free,,,,,,,,,,,,,,,,,,,false,
ELEC,1900 SMP 1900 SMP 1,1900 Shawnee Mission Pkwy,In the parking lot outside,Mission Woods,KS,66205,,888-758-4389,E,,Public,24 hours daily,,,,,,2,,,ChargePoint Network,https://www.chargepoint.com,GPS,39.03507,-94.60818,2025-07-17,117465,2025-07-17 01:13:04 UTC,,,,2019-01-26,,,,,J1772,US,,,,Public,,public,,,,,,,,,,,,,,,,,,,,,,,,,,,,,false,
ELEC,2000 SMP 2000 SMP,2000 Shawnee Mission Pkwy,Access is actually off of 51st St and State Line road. (behind building) ground level parking garage.,Mission Woods,KS,66205,,888-758-4389,E,,Public,24 hours daily,,,,,,2,,,ChargePoint Network,https://www.chargepoint.com,GPS,39.034423,-94.609667,2025-07-17,117466,2025-07-17 01:13:01 UTC,,,,2019-01-26,,,,,J1772,US,,,,Public,,public,,,,,,,,,,,,,,,,,,,,,,,,,,,,,false,
ELEC,EVERGY @PSU KTC -401B,909 E Ford Ave @ Pitt State Tech Center,SW Parking Lot,Pittsburg,KS,66762,,888-758-4389,E,,Public,24 hours daily,,,,,,2,,,ChargePoint Network,https://www.chargepoint.com,GPS,37.389472,-94.689872,2025-07-17,118724,2025-07-17 01:13:58 UTC,,,,2019-02-26,,,,,J1772,US,,,,Public,,public,,,,,,,,,,,,,,,,,,,,,,,,,,,,,false,
ELEC,EVERGY @FH DIS CTR402B,315 S 3rd St @ Flint Hills Discovery Center,East of City Park in Flint Hills Discovery Center Parking Lot.,Manhattan,KS,66502,,888-758-4389,E,,Public,24 hours daily,,,,,,2,,,ChargePoint Network,https://www.chargepoint.com,GPS,39.175919,-96.559487,2025-07-17,120950,2025-07-17 01:14:31 UTC,,,,2019-03-27,,,,,J1772,US,,,,Public,,public,,,,,,,,,,,,,,,,,,,,,,,,,,,,,false,
ELEC,EVERGY @CENTENIAL-077B,12002 Hayes St @ Centennial Park Apts Pool,Restricted Tenant Only-South side of the pool.,Overland Park,KS,66213,,888-758-4389,E,,Public,24 hours daily,,,,,,2,,,ChargePoint Network,https://www.chargepoint.com,GPS,38.911139,-94.690951,2025-07-17,122979,2025-07-17 00:51:10 UTC,,,,2019-05-22,,,,,J1772,US,,,,Public,,public,,,,,,,,,,,,,,,,,,,,,,,,,,,,,false,
ELEC,EVERGY @WALMART -062C,13600 S Alden St @ Walmart #577,SE corner of the front parking lot along Alden St.,Olathe,KS,66062,,888-758-4389,E,,Public,24 hours daily,,,,,,2,,,ChargePoint Network,https://www.chargepoint.com,GPS,38.881632,-94.756514,2025-07-17,122980,2025-07-17 00:50:51 UTC,,,,2019-05-22,,,,,J1772,US,,,,Public,,public,,,,,,,,,,,,,,,,,,,,,,,,,,,,,false,
ELEC,EVERGY @CORINTH SQ335B,8221 Corinth Mall @ Corinth Square Mall,Parking row along 83rd St. toward Arbys,Prairie Village,KS,66208,,888-758-4389,E,,Public,24 hours daily,,,,,,2,,,ChargePoint Network,https://www.chargepoint.com,GPS,38.978823,-94.632504,2025-07-17,143126,2025-07-17 01:18:19 UTC,,,,2019-08-15,,,,,J1772,US,,,,Public,,public,,,,,,,,,,,,,,,,,,,,,,,,,,,,,false,
ELEC,EVERGY @CITY HALL-334A,11110 Johnson Dr @ Shawnee City Hall,In the parking lot along Johnson Drive,Shawnee,KS,66203,,888-758-4389,E,,Public,24 hours daily,,,,,,2,,,ChargePoint Network,https://www.chargepoint.com,GPS,39.023086,-94.714919,2025-07-17,143134,2025-07-17 01:18:16 UTC,,,,2019-08-15,,,,,J1772,US,,,,Public,,public,,,,,,,,,,,,,,,,,,,,,,,,,,,,,false,
ELEC,HOME2 HOMES2 SUITE 2,7121 W 135th St Homes2Suite Hotel,North parking lot of hotel,Overland Park,KS,66223,,888-758-4389,E,,Public,24 hours daily,,,,,,2,,,ChargePoint Network,https://www.chargepoint.com,GPS,38.882668,-94.66907,2025-07-17,143444,2025-07-17 01:16:44 UTC,,,,2019-08-15,,,,,J1772,US,,,,Public,,public,,,,,,,,,,,,,,,,,,,,,,,,,,,,,false,
ELEC,BLUESTEM ELEC BLUESTEM WAMEGO,1000 S Wind Dr,North side of building in parking lot,Wamego,KS,66547,,888-758-4389,E,,Public,24 hours daily,,,,,,2,,,ChargePoint Network,https://www.chargepoint.com,GPS,39.209272,-96.282852,2025-07-17,143476,2025-07-17 01:16:35 UTC,,,,2019-08-15,,,,,J1772,US,,,,Public,,public,,,,,,,,,,,,,,,,,,,,,,,,,,,,,false,
ELEC,EVERGY @KTA SVC -408A,8000 SE I-70 Hwy @ KS Turnpike - Topeka East,East side,Topeka OCL,KS,66542,,888-758-4389,E,,Public,24 hours daily,,,,,,,1,,ChargePoint Network,https://www.chargepoint.com,GPS,39.01963,-95.50789,2025-07-17,143489,2025-07-17 01:16:32 UTC,,,,2019-08-15,,,,,CHADEMO J1772COMBO,US,,,,Public,,public,,,,,,,,,,,,,,,,,,,,,,,,,,,,,false,
ELEC,EVERGY @KTA SVC -405A,MM 209 I-70 KTA Hwy @ KS Turnpike - Lawrence,East end of parking lot outside EZ-Go,Lawrence OCL,KS,66044,,888-758-4389,E,,Public,24 hours daily,,,,,,2,,,ChargePoint Network,https://www.chargepoint.com,GPS,39.020224,-95.134502,2025-07-17,143500,2025-07-17 01:16:29 UTC,,,,2019-08-15,,,,,J1772,US,,,,Public,,public,,,,,,,,,,,,,,,,,,,,,,,,,,,,,false,
ELEC,HOME2 HOME2 SUITE 1,7121 W 135th St,North side of hotel,Overland Park,KS,66223,,888-758-4389,E,,Public,24 hours daily,,,,,,2,,,ChargePoint Network,https://www.chargepoint.com,GPS,38.882675,-94.669184,2025-07-17,143597,2025-07-17 01:13:08 UTC,,,,2019-08-15,,,,,J1772,US,,,,Public,,public,,,,,,,,,,,,,,,,,,,,,,,,,,,,,false,
ELEC,KIEWIT RENNER #3,8900 Renner Blvd,,Lenexa,KS,66219,,888-758-4389,E,,Public,24 hours daily,,,,,,2,,,ChargePoint Network,https://www.chargepoint.com,GPS,38.96635,-94.781022,2025-07-17,143696,2025-07-17 00:48:32 UTC,,,,2019-08-15,,,,,J1772,US,,,,Public,,public,,,,,,,,,,,,,,,,,,,,,,,,,,,,,false,
ELEC,EVERGY @MENORH MED164A,5721 W 119th Street @ Menorah Medical Center,NE Corner of South Parking Lot,Leawood,KS,66209,,888-758-4389,E,,Public,24 hours daily,,,,,,2,,,ChargePoint Network,https://www.chargepoint.com,GPS,38.909495,-94.649923,2025-07-17,143829,2025-07-17 00:52:32 UTC,,,,2019-08-17,,,,,J1772,US,,,,Public,,public,,,,,,,,,,,,,,,,,,,,,,,,,,,,,false,
ELEC,HY VEE OLATHE 1 NORTH,15153-15205 S Black Bob Rd,SW corner of parking lot,Olathe,KS,66062,,888-758-4389,E,,Public,24 hours daily,,,,,,2,,,ChargePoint Network,https://www.chargepoint.com,GPS,38.853071,-94.760129,2025-07-17,147358,2025-07-17 00:48:15 UTC,,,,2019-10-29,,,,,J1772,US,,,,Public,,public,,,,,,,,,,,,,,,,,,,,,,,,,,,,,false,
ELEC,HY VEE OLATHE 1 SOUTH,15153-15205 S Black Bob Rd,SW corner of the parking lot,Olathe,KS,66062,,888-758-4389,E,,Public,24 hours daily,,,,,,2,,,ChargePoint Network,https://www.chargepoint.com,GPS,38.852981,-94.7601,2025-07-17,147361,2025-07-17 00:48:11 UTC,,,,2019-10-29,,,,,J1772,US,,,,Public,,public,,,,,,,,,,,,,,,,,,,,,,,,,,,,,false,
ELEC,EVERGY @STADIUM -409A,916 Denison Ave @ KSU Memorial Stadium,Parking Lot on West side of Stadium,Manhattan,KS,66502,,888-758-4389,E,,Public,24 hours daily,,,,,,2,,,ChargePoint Network,https://www.chargepoint.com,GPS,39.18744,-96.58577,2025-07-17,149244,2025-07-17 01:21:26 UTC,,,,2019-11-19,,,,,J1772,US,,,,Public,,public,,,,,,,,,,,,,,,,,,,,,,,,,,,,,false,
ELEC,Hy-Vee - Tesla Supercharger,6655 Martway Street,,Mission,KS,66202,,877-798-3752,E,,Public,24 hours daily. Please check Tesla's online station map to see if an adapter is required at this location.,,,,,,,8,,Tesla,https://www.tesla.com/supercharger,200-9,39.020074,-94.661193,2024-07-01,149334,2025-05-06 21:07:47 UTC,P,,,2019-09-30,,,,,TESLA,US,,,,Public,,public,,,,,,,,,,,,,,,,,,,,,,,,,,,,,false,
ELEC,Hy-Vee - Tesla Supercharger,18101 West 119th Street,,Olathe,KS,66061,,877-798-3752,E,,Public,24 hours daily. Please check Tesla's online station map to see if an adapter is required at this location.,,,,,,,8,,Tesla,https://www.tesla.com/supercharger,200-9,38.912126,-94.795614,2024-07-01,149340,2025-05-06 21:07:47 UTC,P,,,2019-09-30,,,,,TESLA,US,,,,Public,,public,,,,,,,,,,,,,,,,,,,,,,,,,,,,,false,
ELEC,Nissan of Legends,1900 N 100th Terrace,,Kansas City,KS,66109,,913-396-6971,E,,Public - Call ahead,Dealership business hours,,,,,,1,,,Non-Networked,,200-8,39.12751,-94.81196,2024-02-12,149471,2025-02-12 00:16:32 UTC,P,,,2019-05-01,,,,,J1772,US,,,,Public - Appeler à l'avance,,public,CALL,,CAR_DEALER,,,,,,,,,,,,,,,,,false,,,,,,,,LD,false,
ELEC,Nissan of Legends,1900 N 100th Terrace,,Kansas City,KS,66109,,913-396-6971,E,,Private,Service center use only,,,,,,1,,,Non-Networked,,200-8,39.12751,-94.81196,2024-02-12,149485,2025-02-12 00:16:32 UTC,P,,,2019-05-01,,,,,J1772,US,,,,Privé,,private,,,CAR_DEALER,,,,,,,,,,,,,,,,,,,,,,,,,,false,
ELEC,Evergy,25166 E 2200 Rd,,LaCygne,KS,66040,,,E,,Private,,,,,,,2,,,ChargePoint Network,https://www.chargepoint.com,200-8,38.338223,-94.636917,2025-01-13,150067,2025-02-12 00:16:32 UTC,P,,,2019-12-14,,,,,J1772,US,,,,Privé,,private,,,UTILITY,,,,,,,,,,,,,,,,,,,,,,,,,,false,
ELEC,Evergy,25166 E 2200 Rd,,LaCygne,KS,66040,,,E,,Private,,,,,,,2,,,ChargePoint Network,https://www.chargepoint.com,200-8,38.338223,-94.636917,2025-01-13,150068,2025-02-12 00:16:32 UTC,P,,,2019-12-14,,,,,J1772,US,,,,Privé,,private,,,UTILITY,,,,,,,,,,,,,,,,,,,,,,,,,,false,
ELEC,Evergy,25166 E 2200 Rd,,LaCygne,KS,66040,,,E,,Private,,,,,,,2,,,ChargePoint Network,https://www.chargepoint.com,200-8,38.338223,-94.636917,2025-01-13,150069,2025-02-12 00:16:32 UTC,P,,,2019-12-14,,,,,J1772,US,,,,Privé,,private,,,UTILITY,,,,,,,,,,,,,,,,,,,,,,,,,,false,
ELEC,Hampton Inn Gardner Conference Center - Tesla Destination,151 S Ceder Niles Rd,,Gardner,KS,66030,,877-798-3752,E,,Public,,,,,,,1,,,Tesla Destination,https://www.tesla.com/destination-charging,200-8,38.809367,-94.889966,2024-07-01,150685,2025-02-12 00:16:32 UTC,P,,,2019-06-11,,,,,TESLA,US,,,,Public,,public,,,,,,,,,,Free,,,,,,,,,,,,,,,,,,,false,
ELEC,EVERGY @RVRFRNT CC412A,319 S Esplanade St @ Riverfront Community Cen,In front of Carousel Museum,Leavenworth,KS,66048,,888-758-4389,E,,Public,24 hours daily,,,,,,2,,,ChargePoint Network,https://www.chargepoint.com,GPS,39.317331,-94.909111,2025-07-17,152354,2025-07-17 01:22:31 UTC,,,,2020-01-10,,,,,J1772,US,,,,Public,,public,,,,,,,,,,,,,,,,,,,,,,,,,,,,,false,
ELEC,EVERGY @WSU YMCA -413A,2060 N Mid-Campus Dr @ WSU Steve Clark YMCA,near the YMCA at WSU,Wichita,KS,67208,,888-758-4389,E,,Public,24 hours daily,,,,,,2,,,ChargePoint Network,https://www.chargepoint.com,GPS,37.72004,-97.28749,2025-07-17,153558,2025-07-17 01:24:24 UTC,,,,2020-02-08,,,,,J1772,US,,,,Public,,public,,,,,,,,,,,,,,,,,,,,,,,,,,,,,false,
ELEC,PARK PLACE VLGE SOUTH NALL #2,11571 Nall Ave,Inside parking garage entrance to the right.,Leawood,KS,66211,,888-758-4389,E,,Public,24 hours daily,,,,,,2,,,ChargePoint Network,https://www.chargepoint.com,GPS,38.918594,-94.648411,2025-07-17,154601,2025-07-17 01:26:12 UTC,,,,2020-03-21,,,,,J1772,US,,,,Public,,public,,,,,,,,,,,,,,,,,,,,,,,,,,,,,false,
ELEC,Emporia West Plaza - Tesla Supercharger,1312 Industrial Road,,Emporia,KS,66801,,877-798-3752,E,,Public,24 hours daily. Please check Tesla's online station map to see if an adapter is required at this location.,,,,,,,8,,Tesla,https://www.tesla.com/supercharger,GPS,38.414344,-96.21673,2024-07-01,158382,2025-05-06 21:07:47 UTC,P,,,2020-05-29,,,,,TESLA,US,,,,Public,,public,,,SHOPPING_CENTER,,,,,,,,,,,,,,,,,,,,,,,,,,false,
ELEC,EVERGY @HUTCH HOS-415A,2132 N Waldron St Hutchinson Regional Medical,Charger is located in the west side of hospital and west side of parking lot,Hutchinson,KS,67502,,888-758-4389,E,,Public,24 hours daily,,,,,,2,,,ChargePoint Network,https://www.chargepoint.com,GPS,38.077837,-97.894476,2025-07-17,163581,2025-07-17 01:28:52 UTC,,,,2020-06-24,,,,,J1772,US,,,,Public,,public,,,,,,,,,,,,,,,,,,,,,,,,,,,,,false,
ELEC,HENHOUSESTATION CAMELOT COURT,11835 Roe Ave,"Parking lot of Hen House, in front of Cactus Gril",Leawood,KS,66211,,888-758-4389,E,,Public,24 hours daily,,,,,,1,,,ChargePoint Network,https://www.chargepoint.com,GPS,38.914238,-94.638077,2025-07-17,163809,2025-07-17 00:58:05 UTC,,,,2020-07-02,,,,,J1772,US,,,,Public,,public,,,,,,,,,,,,,,,,,,,,,,,,,,,,,false,
ELEC,EVERGY @WSU TECH-417B,4004 N Webb Rd @ WSU Tech Center,At WSU Tech,Wichita,KS,67226,,888-758-4389,E,,Public,24 hours daily,,,,,,2,,,ChargePoint Network,https://www.chargepoint.com,GPS,37.758943,-97.224532,2025-07-17,167158,2025-07-17 01:31:58 UTC,,,,2020-09-29,,,,,J1772,US,,,,Public,,public,,,,,,,,,,,,,,,,,,,,,,,,,,,,,false,
ELEC,PARK PLACE VLGE 117TH GARAGE #1,5200 W 117th St,"1st level, take 1st left, unit 2 spaces down on left",Leawood,KS,66211,,888-758-4389,E,,Public,24 hours daily,,,,,,2,,,ChargePoint Network,https://www.chargepoint.com,GPS,38.916763,-94.646259,2025-07-17,167347,2025-07-17 01:32:32 UTC,,,,2020-10-06,,,,,J1772,US,,,,Public,,public,,,,,,,,,,,,,,,,,,,,,,,,,,,,,false,
ELEC,Homewood Suites Topeka - Tesla Destination,1519 SW Arrowhead Rd,,Topeka,KS,66604,,877-798-3752,E,,Public,,,,,,,1,,,Tesla Destination,https://www.tesla.com/destination-charging,200-8,39.041136,-95.757235,2024-07-01,168858,2025-02-12 00:16:32 UTC,P,,,2018-05-31,,,,,TESLA,US,,,,Public,,public,,,,,,,,,,Free,,,,,,,,,,,,,,,,,,,false,
ELEC,Wrap Factory - Tesla Destination,10933 Kaw Dr,,Edwardsville,KS,66111,,877-798-3752,E,,Public,,,,,,,1,,,Tesla Destination,https://www.tesla.com/destination-charging,200-9,39.063122,-94.83369,2024-07-01,169275,2025-02-12 00:16:32 UTC,P,,,2019-09-30,,,,,TESLA,US,,,,Public,,public,,,,,,,,,,Free,,,,,,,,,,,,,,,,,,,false,
ELEC,EVERGY @BJKT PROF-175A,8629 Bluejacket St @ Bluejacket Professional,Located in the parking lot behind the Clinical Associates building.,Lenexa,KS,66214,,888-758-4389,E,,Public,24 hours daily,,,,,,2,,,ChargePoint Network,https://www.chargepoint.com,GPS,38.973048,-94.709888,2025-07-17,171534,2025-07-17 00:52:18 UTC,,,,2021-01-27,,,,,J1772,US,,,,Public,,public,,,,,,,,,,,,,,,,,,,,,,,,,,,,,false,
ELEC,EVERGY @GOLF COURS035C,17501 Midland Dr @ Tomahawk Hills Golf Course,Located on the east end of the clubhouse parking lot.,Shawnee,KS,66217,,888-758-4389,E,,Public,24 hours daily,,,,,,2,,,ChargePoint Network,https://www.chargepoint.com,GPS,38.999945,-94.79034,2025-07-17,171562,2025-07-17 00:51:57 UTC,,,,2021-01-27,,,,,J1772,US,,,,Public,,public,,,,,,,,,,,,,,,,,,,,,,,,,,,,,false,
ELEC,EVERGY @GOLF COURS035A,17501 Midland Dr @ Tomahawk Hills Golf Course,Located on the east end of the clubhouse parking lot.,Shawnee,KS,66217,,888-758-4389,E,,Public,24 hours daily,,,,,,2,,,ChargePoint Network,https://www.chargepoint.com,GPS,39.000048,-94.790325,2025-07-17,171563,2025-07-17 00:49:46 UTC,,,,2021-01-27,,,,,J1772,US,,,,Public,,public,,,,,,,,,,,,,,,,,,,,,,,,,,,,,false,
ELEC,EVERGY @PUB WKS -173B,1385 S Robinson Dr @ Olathe Public Works Adm.,Front parking lot at Olathe Public Works building.,Olathe,KS,66061,,888-758-4389,E,,Public,24 hours daily,,,,,,2,,,ChargePoint Network,https://www.chargepoint.com,GPS,38.862896,-94.844239,2025-07-17,171568,2025-07-17 00:56:40 UTC,,,,2021-01-27,,,,,J1772,US,,,,Public,,public,,,,,,,,,,,,,,,,,,,,,,,,,,,,,false,
ELEC,EVERGY @PUB WKS -173A,1385 S Robinson Dr @ Olathe Public Works Adm.,Front parking lot at Olathe Public Works building.,Olathe,KS,66061,,888-758-4389,E,,Public,24 hours daily,,,,,,2,,,ChargePoint Network,https://www.chargepoint.com,GPS,38.862912,-94.844163,2025-07-17,171569,2025-07-17 00:50:43 UTC,,,,2021-01-27,,,,,J1772,US,,,,Public,,public,,,,,,,,,,,,,,,,,,,,,,,,,,,,,false,
ELEC,ASPIRIA GARAGE P #2,6260 Sprint Pkwy Garage P,South side of the parking garage next to the electrical room,Overland Park,KS,66251,,888-758-4389,E,,Public,24 hours daily,,,,,,2,,,ChargePoint Network,https://www.chargepoint.com,GPS,38.913877,-94.656565,2025-07-17,171699,2025-07-17 00:47:53 UTC,,,,2021-01-27,,,,,J1772,US,,,,Public,,public,,,,,,,,,,,,,,,,,,,,,,,,,,,,,false,
ELEC,EVERGY @HY-VEE -034A,13550 W 63rd St @ Hy-Vee,SE corner of Hy-Vee parking lot along Pflumm Rd.,Shawnee,KS,66216,,888-758-4389,E,,Public,24 hours daily,,,,,,2,,,ChargePoint Network,https://www.chargepoint.com,GPS,39.01526,-94.742716,2025-07-17,171715,2025-07-17 00:49:35 UTC,,,,2021-01-27,,,,,J1772,US,,,,Public,,public,,,,,,,,,,,,,,,,,,,,,,,,,,,,,false,
ELEC,EVERGY @SCRIPTPRO-169B,5839 Woodson Rd @ ScriptPro,West Building Parking Lot along Woodson,Mission,KS,66202,,888-758-4389,E,,Public,24 hours daily,,,,,,2,,,ChargePoint Network,https://www.chargepoint.com,GPS,39.022708,-94.653149,2025-07-17,171744,2025-07-17 00:56:41 UTC,,,,2021-01-27,,,,,J1772,US,,,,Public,,public,,,,,,,,,,,,,,,,,,,,,,,,,,,,,false,
ELEC,EVERGY @SCRIPTPRO-169A,5839 Woodson Rd @ ScriptPro,West Buliding Parking Lot along Woodson,Mission,KS,66202,,888-758-4389,E,,Public,24 hours daily,,,,,,2,,,ChargePoint Network,https://www.chargepoint.com,GPS,39.022807,-94.65315,2025-07-17,171745,2025-07-17 00:50:37 UTC,,,,2021-01-27,,,,,J1772,US,,,,Public,,public,,,,,,,,,,,,,,,,,,,,,,,,,,,,,false,
ELEC,EVERGY @SHMSN MED-255C,23401 Prairie Star Pkwy @ Shawnee Mission Med,Parking lot outside of building A,Lenexa,KS,66227,,888-758-4389,E,,Public,24 hours daily,,,,,,2,,,ChargePoint Network,https://www.chargepoint.com,GPS,38.95525,-94.855544,2025-07-17,171778,2025-07-17 00:51:44 UTC,,,,2021-01-27,,,,,J1772,US,,,,Public,,public,,,,,,,,,,,,,,,,,,,,,,,,,,,,,false,
ELEC,EVERGY @SHMSN MED-255D,23401 Prairie Star Pkwy @ Shawnee Mission Med,Inside parking garage,Lenexa,KS,66227,,888-758-4389,E,,Public,24 hours daily,,,,,,2,,,ChargePoint Network,https://www.chargepoint.com,GPS,38.955078,-94.855806,2025-07-17,171779,2025-07-17 00:51:42 UTC,,,,2021-01-27,,,,,J1772,US,,,,Public,,public,,,,,,,,,,,,,,,,,,,,,,,,,,,,,false,
ELEC,EVERGY @SHMSN MED-255A,23401 Prairie Star Pkwy @ Shawnee Mission Med,Parking lot outside of building A,Lenexa,KS,66227,,888-758-4389,E,,Public,24 hours daily,,,,,,2,,,ChargePoint Network,https://www.chargepoint.com,GPS,38.955327,-94.855458,2025-07-17,171780,2025-07-17 00:56:56 UTC,,,,2021-01-27,,,,,J1772,US,,,,Public,,public,,,,,,,,,,,,,,,,,,,,,,,,,,,,,false,
ELEC,EVERGY @FIELDHOUS-016B,551 New Century Pkwy @ New Century Field Hous,Located on the south side of the building.,New Century,KS,66031,,888-758-4389,E,,Public,24 hours daily,,,,,,2,,,ChargePoint Network,https://www.chargepoint.com,GPS,38.818306,-94.903417,2025-07-17,171783,2025-07-17 00:52:00 UTC,,,,2021-01-27,,,,,J1772,US,,,,Public,,public,,,,,,,,,,,,,,,,,,,,,,,,,,,,,false,
ELEC,EVERGY @FIELDHOUS-016C,551 New Century Pkwy @ New Century Field Hous,Located on the south side of the building.,New Century,KS,66031,,888-758-4389,E,,Public,24 hours daily,,,,,,2,,,ChargePoint Network,https://www.chargepoint.com,GPS,38.81832,-94.903481,2025-07-17,171784,2025-07-17 00:51:41 UTC,,,,2021-01-27,,,,,J1772,US,,,,Public,,public,,,,,,,,,,,,,,,,,,,,,,,,,,,,,false,
ELEC,BLACK & VEATCH MAIN CAMPUS 2,6074-6460 W 115th St,In the south parking lot,Overland Park,KS,66211,,888-758-4389,E,,Public,24 hours daily,,,,,,2,,,ChargePoint Network,https://www.chargepoint.com,GPS,38.923289,-94.655797,2025-07-17,171796,2025-07-17 00:48:51 UTC,,,,2021-01-27,,,,,J1772,US,,,,Public,,public,,,,,,,,,,,,,,,,,,,,,,,,,,,,,false,
ELEC,BLACK & VEATCH MAIN CAMPUS 1,6074-6460 W 115th St,In the south parking lot,Overland Park,KS,66211,,888-758-4389,E,,Public,24 hours daily,,,,,,2,,,ChargePoint Network,https://www.chargepoint.com,GPS,38.92319,-94.65582,2025-07-17,171797,2025-07-17 00:48:44 UTC,,,,2021-01-27,,,,,J1772,US,,,,Public,,public,,,,,,,,,,,,,,,,,,,,,,,,,,,,,false,
ELEC,EVERGY @UNILEVER -013A,27080 W 159th St @ Unilever,In the south east corner of the main parking lot,New Century,KS,66031,,888-758-4389,E,,Public,24 hours daily,,,,,,2,,,ChargePoint Network,https://www.chargepoint.com,GPS,38.840183,-94.896476,2025-07-17,171822,2025-07-17 00:52:22 UTC,,,,2021-01-27,,,,,J1772,US,,,,Public,,public,,,,,,,,,,,,,,,,,,,,,,,,,,,,,false,
ELEC,EVERGY @CHELEPIS -211C,8302 College Blvd @ Chelepis & Associates,South side parking lot,Overland Park,KS,66210,,888-758-4389,E,,Public,24 hours daily,,,,,,2,,,ChargePoint Network,https://www.chargepoint.com,GPS,38.928078,-94.681436,2025-07-17,171868,2025-07-17 00:51:29 UTC,,,,2021-01-27,,,,,J1772,US,,,,Public,,public,,,,,,,,,,,,,,,,,,,,,,,,,,,,,false,
ELEC,EVERGY @CHELEPIS -211B,8302 College Blvd @ Chelepis & Associates,South side parking lot,Overland Park,KS,66210,,888-758-4389,E,,Public,24 hours daily,,,,,,2,,,ChargePoint Network,https://www.chargepoint.com,GPS,38.928028,-94.681436,2025-07-17,171869,2025-07-17 00:51:29 UTC,,,,2021-01-27,,,,,J1772,US,,,,Public,,public,,,,,,,,,,,,,,,,,,,,,,,,,,,,,false,
ELEC,EVERGY @BNK OF AM-212C,8679 College Blvd @ Bank of America,Parking lot along Antioch on the south side of Bank of America,Overland Park,KS,66210,,888-758-4389,E,,Public,24 hours daily,,,,,,2,,,ChargePoint Network,https://www.chargepoint.com,GPS,38.926515,-94.685954,2025-07-17,171872,2025-07-17 00:51:21 UTC,,,,2021-01-27,,,,,J1772,US,,,,Public,,public,,,,,,,,,,,,,,,,,,,,,,,,,,,,,false,
ELEC,EVERGY @BNK OF AM-212A,8679 College Blvd @ Bank of America,Parking lot along Antioch on the south side of Bank of America,Overland Park,KS,66210,,888-758-4389,E,,Public,24 hours daily,,,,,,2,,,ChargePoint Network,https://www.chargepoint.com,GPS,38.92642,-94.685953,2025-07-17,171873,2025-07-17 00:50:04 UTC,,,,2021-01-27,,,,,J1772,US,,,,Public,,public,,,,,,,,,,,,,,,,,,,,,,,,,,,,,false,
ELEC,EVERGY @WHOLE FOOD020A,14615 W 119th St @ Whole Foods,NE corner of parking lot along the main access drive,Olathe,KS,66062,,888-758-4389,E,,Public,24 hours daily,,,,,,2,,,ChargePoint Network,https://www.chargepoint.com,GPS,38.911856,-94.757206,2025-07-17,171947,2025-07-17 00:49:35 UTC,,,,2021-01-27,,,,,J1772,US,,,,Public,,public,,,,,,,,,,,,,,,,,,,,,,,,,,,,,false,
ELEC,EVERGY @WHOLE FOOD020B,14615 W 119th St @ Whole Foods,NE corner of parking lot along the main access drive,Olathe,KS,66062,,888-758-4389,E,,Public,24 hours daily,,,,,,2,,,ChargePoint Network,https://www.chargepoint.com,GPS,38.91186,-94.757078,2025-07-17,171948,2025-07-17 00:51:41 UTC,,,,2021-01-27,,,,,J1772,US,,,,Public,,public,,,,,,,,,,,,,,,,,,,,,,,,,,,,,false,
ELEC,EVERGY @GREYSTONE-021B,12850 W 87th St Pkwy @ Greystone South Plaza,"Located in the Greystone South Plaza parking lot along 87th St Pkwy, near the Commerce Bank ATM.",Lenexa,KS,66215,,888-758-4389,T,2025-07-12,TEMPORARILY UNAVAILABLE (Public),24 hours daily,,,,,,2,,,ChargePoint Network,https://www.chargepoint.com,GPS,38.971291,-94.735428,2025-07-17,171993,2025-07-17 00:52:06 UTC,,,,2021-01-27,,,,,J1772,US,,,,TEMPORAIREMENT SUSPENDU (Public),,public,,,,,,,,,,,,,,,,,,,,,,,,,,,,,false,
ELEC,EVERGY @GREYSTONE-021A,12850 W 87th St Pkwy @ Greystone South Plaza,"Located in the Greystone South Plaza parking lot along 87th St Pkwy, near the Commerce Bank ATM.",Lenexa,KS,66215,,888-758-4389,E,,Public,24 hours daily,,,,,,2,,,ChargePoint Network,https://www.chargepoint.com,GPS,38.971289,-94.735365,2025-07-17,171994,2025-07-17 00:52:25 UTC,,,,2021-01-27,,,,,J1772,US,,,,Public,,public,,,,,,,,,,,,,,,,,,,,,,,,,,,,,false,
ELEC,EVERGY @HERITG PRK012B,13915 W 159th Ter @ Heritage Park,Located in the marina parking lot,Olathe,KS,66062,,888-758-4389,E,,Public,24 hours daily,,,,,,2,,,ChargePoint Network,https://www.chargepoint.com,GPS,38.835736,-94.746791,2025-07-17,172000,2025-07-17 00:51:59 UTC,,,,2021-01-27,,,,,J1772,US,,,,Public,,public,,,,,,,,,,,,,,,,,,,,,,,,,,,,,false,
ELEC,EVERGY @HERITG PRK012A,13915 W 159th Ter @ Heritage Park,Located in the marina parking lot,Olathe,KS,66062,,888-758-4389,E,,Public,24 hours daily,,,,,,2,,,ChargePoint Network,https://www.chargepoint.com,GPS,38.835707,-94.746743,2025-07-17,172001,2025-07-17 00:52:46 UTC,,,,2021-01-27,,,,,J1772,US,,,,Public,,public,,,,,,,,,,,,,,,,,,,,,,,,,,,,,false,
ELEC,EVERGY @KOHLS -143B,11587 Metcalf Ave @ Kohls,North end of parking lot along 115th Street.,Overland Park,KS,66210,,888-758-4389,T,2025-06-19,TEMPORARILY UNAVAILABLE (Public),24 hours daily,,,,,,2,,,ChargePoint Network,https://www.chargepoint.com,GPS,38.917161,-94.664755,2025-07-17,172004,2025-07-17 00:51:15 UTC,,,,2021-01-27,,,,,J1772,US,,,,TEMPORAIREMENT SUSPENDU (Public),,public,,,,,,,,,,,,,,,,,,,,,,,,,,,,,false,
ELEC,EVERGY @KOHLS -143A,11587 Metcalf Ave @ Kohls,North end of parking lot along 115th Street.,Overland Park,KS,66210,,888-758-4389,E,,Public,24 hours daily,,,,,,2,,,ChargePoint Network,https://www.chargepoint.com,GPS,38.917163,-94.664826,2025-07-17,172005,2025-07-17 00:50:02 UTC,,,,2021-01-27,,,,,J1772,US,,,,Public,,public,,,,,,,,,,,,,,,,,,,,,,,,,,,,,false,
ELEC,EVERGY @HY-VEE -003A,8503 W 95th St @ Hy-Vee #1,In the SE corner of the Hy-Vee parking lot.,Overland Park,KS,66212,,888-758-4389,E,,Public,24 hours daily,,,,,,2,,,ChargePoint Network,https://www.chargepoint.com,GPS,38.955162,-94.684308,2025-07-17,172006,2025-07-17 00:49:33 UTC,,,,2021-01-27,,,,,J1772,US,,,,Public,,public,,,,,,,,,,,,,,,,,,,,,,,,,,,,,false,
ELEC,EVERGY @SAMS CLUB-050C,8314 W 135th St @ Sams Club #4707,South end of Sam's Club parking lot near Salty Iguana.,Overland Park,KS,66223,,888-758-4389,E,,Public,24 hours daily,,,,,,2,,,ChargePoint Network,https://www.chargepoint.com,GPS,38.884795,-94.683565,2025-07-17,172041,2025-07-17 00:52:10 UTC,,,,2021-01-27,,,,,J1772,US,,,,Public,,public,,,,,,,,,,,,,,,,,,,,,,,,,,,,,false,
ELEC,EVERGY @SAMS CLUB-050A,8314 W 135th St @ Sams Club #4707,South end of Sam's Club parking lot near Salty Iguana.,Overland Park,KS,66223,,888-758-4389,E,,Public,24 hours daily,,,,,,2,,,ChargePoint Network,https://www.chargepoint.com,GPS,38.884783,-94.683506,2025-07-17,172042,2025-07-17 00:49:15 UTC,,,,2021-01-27,,,,,J1772,US,,,,Public,,public,,,,,,,,,,,,,,,,,,,,,,,,,,,,,false,
ELEC,EVERGY @JCCC -025A,21151 W 152nd St @ Johnson Co. Community Coll,North of building in circular parking area off of 152nd St.,Olathe,KS,66062,,888-758-4389,E,,Public,24 hours daily,,,,,,2,,,ChargePoint Network,https://www.chargepoint.com,GPS,38.852843,-94.830306,2025-07-17,172073,2025-07-17 00:52:15 UTC,,,,2021-01-27,,,,,J1772,US,,,,Public,,public,,,,,,,,,,,,,,,,,,,,,,,,,,,,,false,
ELEC,EVERGY @JCCC -025C,21151 W 152nd St @ Johnson Co. Community Coll,North of building in circular parking area off of 152nd St.,Olathe,KS,66062,,888-758-4389,E,,Public,24 hours daily,,,,,,2,,,ChargePoint Network,https://www.chargepoint.com,GPS,38.852949,-94.830436,2025-07-17,172074,2025-07-17 00:50:48 UTC,,,,2021-01-27,,,,,J1772,US,,,,Public,,public,,,,,,,,,,,,,,,,,,,,,,,,,,,,,false,
ELEC,EVERGY @PARKEDGE -048C,8133 Renner Blvd @ Park Edge Apartments,Located next to building 8135.,Lenexa,KS,66219,,888-758-4389,E,,Public,24 hours daily,,,,,,2,,,ChargePoint Network,https://www.chargepoint.com,GPS,38.980843,-94.778007,2025-07-17,172077,2025-07-17 00:51:25 UTC,,,,2021-01-27,,,,,J1772,US,,,,Public,,public,,,,,,,,,,,,,,,,,,,,,,,,,,,,,false,
ELEC,EVERGY @PARKEDGE -048A,8133 Renner Blvd @ Park Edge Apartments,Located next to building 8135.,Lenexa,KS,66219,,888-758-4389,E,,Public,24 hours daily,,,,,,2,,,ChargePoint Network,https://www.chargepoint.com,GPS,38.980801,-94.778043,2025-07-17,172078,2025-07-17 00:50:02 UTC,,,,2021-01-27,,,,,J1772,US,,,,Public,,public,,,,,,,,,,,,,,,,,,,,,,,,,,,,,false,
ELEC,EVERGY @K-STATE -011B,22199 W Innovation Dr @ K-State Olathe,Located in the K-State parking lot at the Kansas Bioscience Park,Olathe,KS,66061,,888-758-4389,E,,Public,24 hours daily,,,,,,2,,,ChargePoint Network,https://www.chargepoint.com,GPS,38.929386,-94.8427,2025-07-17,172093,2025-07-17 00:52:06 UTC,,,,2021-01-27,,,,,J1772,US,,,,Public,,public,,,,,,,,,,,,,,,,,,,,,,,,,,,,,false,
ELEC,EVERGY @K-STATE -011A,22199 W Innovation Dr @ K-State Olathe,Located in the K-State parking lot at the Kansas Bioscience Park,Olathe,KS,66061,,888-758-4389,E,,Public,24 hours daily,,,,,,2,,,ChargePoint Network,https://www.chargepoint.com,GPS,38.929421,-94.842747,2025-07-17,172094,2025-07-17 00:50:43 UTC,,,,2021-01-27,,,,,J1772,US,,,,Public,,public,,,,,,,,,,,,,,,,,,,,,,,,,,,,,false,
ELEC,EVERGY @WALMART -066C,11703 Metcalf Ave @ Walmart #1599,At the back of the Walmart parking lot.,Overland Park,KS,66210,,888-758-4389,E,,Public,24 hours daily,,,,,,2,,,ChargePoint Network,https://www.chargepoint.com,GPS,38.91501,-94.666271,2025-07-17,172095,2025-07-17 00:50:56 UTC,,,,2021-01-27,,,,,J1772,US,,,,Public,,public,,,,,,,,,,,,,,,,,,,,,,,,,,,,,false,
ELEC,EVERGY @WALMART -066B,11703 Metcalf Ave @ Walmart #1599,EVCS located at the back of the Walmart parking lot near K Macho's and Old Chicago.,Overland Park,KS,66210,,888-758-4389,E,,Public,24 hours daily,,,,,,2,,,ChargePoint Network,https://www.chargepoint.com,GPS,38.91496,-94.666273,2025-07-17,172096,2025-07-17 00:50:53 UTC,,,,2021-01-27,,,,,J1772,US,,,,Public,,public,,,,,,,,,,,,,,,,,,,,,,,,,,,,,false,
ELEC,EVERGY @MILL CRK- 042C,13438 W 62nd Ter @ Mill Creek Shopping Center,In front of CVS Pharmacy along 62nd Terrace.,Shawnee,KS,66216,,888-758-4389,E,,Public,24 hours daily,,,,,,2,,,ChargePoint Network,https://www.chargepoint.com,GPS,39.015511,-94.741532,2025-07-17,172138,2025-07-17 00:50:55 UTC,,,,2021-01-27,,,,,J1772,US,,,,Public,,public,,,,,,,,,,,,,,,,,,,,,,,,,,,,,false,
ELEC,EVERGY @MILL CRK- 042A,13438 W 62nd Ter @ Mill Creek Shopping Center,In front of CVS Pharmacy along 62nd Terrace.,Shawnee,KS,66216,,888-758-4389,E,,Public,24 hours daily,,,,,,2,,,ChargePoint Network,https://www.chargepoint.com,GPS,39.015511,-94.741409,2025-07-17,172139,2025-07-17 00:49:19 UTC,,,,2021-01-27,,,,,J1772,US,,,,Public,,public,,,,,,,,,,,,,,,,,,,,,,,,,,,,,false,
ELEC,EVERGY @SAMS CLUB-052C,12200 W 95th St @ Sams Club #8208,West side of the parking lot along Monrovia St.,Lenexa,KS,66215,,888-758-4389,E,,Public,24 hours daily,,,,,,2,,,ChargePoint Network,https://www.chargepoint.com,GPS,38.958342,-94.728157,2025-07-17,172142,2025-07-17 00:52:08 UTC,,,,2021-01-27,,,,,J1772,US,,,,Public,,public,,,,,,,,,,,,,,,,,,,,,,,,,,,,,false,
ELEC,EVERGY @SAMS CLUB-052A,12200 W 95th St @ Sams Club #8208,West side of the parking lot along Monrovia St.,Lenexa,KS,66215,,888-758-4389,E,,Public,24 hours daily,,,,,,2,,,ChargePoint Network,https://www.chargepoint.com,GPS,38.958394,-94.728157,2025-07-17,172143,2025-07-17 00:49:15 UTC,,,,2021-01-27,,,,,J1772,US,,,,Public,,public,,,,,,,,,,,,,,,,,,,,,,,,,,,,,false,
ELEC,EVERGY @WALMART -074A,11010 W 74th Ter @ Walmart #5308,Located at the west end of the parking lot along Nieman Rd.,Shawnee,KS,66203,,888-758-4389,E,,Public,24 hours daily,,,,,,2,,,ChargePoint Network,https://www.chargepoint.com,GPS,38.99383,-94.714239,2025-07-17,172163,2025-07-17 00:49:13 UTC,,,,2021-01-27,,,,,J1772,US,,,,Public,,public,,,,,,,,,,,,,,,,,,,,,,,,,,,,,false,
ELEC,EVERGY @WALMART -074B,11010 W 74th Ter @ Walmart #5308,Located at the west end of the parking lot along Nieman Rd.,Shawnee,KS,66203,,888-758-4389,E,,Public,24 hours daily,,,,,,2,,,ChargePoint Network,https://www.chargepoint.com,GPS,38.993778,-94.71424,2025-07-17,172164,2025-07-17 00:52:45 UTC,,,,2021-01-27,,,,,J1772,US,,,,Public,,public,,,,,,,,,,,,,,,,,,,,,,,,,,,,,false,
ELEC,EVERGY @LEAWD APT-078C,2140 W 137th Ter @ Leawood State Line Apts Cl,Parking lot to the west of the clubhouse,Leawood,KS,66224,,888-758-4389,E,,Public,24 hours daily,,,,,,2,,,ChargePoint Network,https://www.chargepoint.com,GPS,38.879332,-94.610402,2025-07-17,172180,2025-07-17 00:51:07 UTC,,,,2021-01-27,,,,,J1772,US,,,,Public,,public,,,,,,,,,,,,,,,,,,,,,,,,,,,,,false,
ELEC,EVERGY @LEAWD APT-078A,2140 W 137th Ter @ Leawood State Line Apts Cl,Parking lot to the west of the clubhouse,Leawood,KS,66224,,888-758-4389,E,,Public,24 hours daily,,,,,,2,,,ChargePoint Network,https://www.chargepoint.com,GPS,38.879382,-94.610509,2025-07-17,172181,2025-07-17 00:50:03 UTC,,,,2021-01-27,,,,,J1772,US,,,,Public,,public,,,,,,,,,,,,,,,,,,,,,,,,,,,,,false,
ELEC,EVERGY @SCRIPTPRO-170C,5828 Reeds Rd @ ScriptPro,ScriptPro parking lot on east side of Maple St.,Mission,KS,66202,,888-758-4389,E,,Public,24 hours daily,,,,,,2,,,ChargePoint Network,https://www.chargepoint.com,GPS,39.022904,-94.649655,2025-07-17,172184,2025-07-17 00:56:41 UTC,,,,2021-01-27,,,,,J1772,US,,,,Public,,public,,,,,,,,,,,,,,,,,,,,,,,,,,,,,false,
ELEC,EVERGY @SCRIPTPRO-170A,5828 Reeds Rd @ ScriptPro,ScriptPro parking lot on east side of Maple St.,Mission,KS,66202,,888-758-4389,E,,Public,24 hours daily,,,,,,2,,,ChargePoint Network,https://www.chargepoint.com,GPS,39.022953,-94.649654,2025-07-17,172185,2025-07-17 00:50:38 UTC,,,,2021-01-27,,,,,J1772,US,,,,Public,,public,,,,,,,,,,,,,,,,,,,,,,,,,,,,,false,
ELEC,EVERGY @HEND ENG-185B,8345 Lenexa Dr @ Henderson Engineers,Near the SE corner of the building.,Lenexa,KS,66214,,888-758-4389,E,,Public,24 hours daily,,,,,,2,,,ChargePoint Network,https://www.chargepoint.com,GPS,38.976465,-94.70953,2025-07-17,172195,2025-07-17 00:51:52 UTC,,,,2021-01-27,,,,,J1772,US,,,,Public,,public,,,,,,,,,,,,,,,,,,,,,,,,,,,,,false,
ELEC,EVERGY @HEND ENG-185A,8345 Lenexa Dr @ Henderson Engineers,Near the SE corner of the building.,Lenexa,KS,66214,,888-758-4389,E,,Public,24 hours daily,,,,,,2,,,ChargePoint Network,https://www.chargepoint.com,GPS,38.976423,-94.709565,2025-07-17,172196,2025-07-17 00:50:09 UTC,,,,2021-01-27,,,,,J1772,US,,,,Public,,public,,,,,,,,,,,,,,,,,,,,,,,,,,,,,false,
ELEC,EVERGY @COMFORTIN176C,7200 W 107th St @ Comfort Inn,NW corner of the Comfort Inn parking lot.,Overland Park,KS,66212,,888-758-4389,E,,Public,24 hours daily,,,,,,2,,,ChargePoint Network,https://www.chargepoint.com,GPS,38.935013,-94.669994,2025-07-17,172197,2025-07-17 00:50:48 UTC,,,,2021-01-27,,,,,J1772,US,,,,Public,,public,,,,,,,,,,,,,,,,,,,,,,,,,,,,,false,
ELEC,EVERGY @COMFORTIN176A,7200 W 107th St @ Comfort Inn,NW corner of the Comfort Inn parking lot.,Overland Park,KS,66212,,888-758-4389,E,,Public,24 hours daily,,,,,,2,,,ChargePoint Network,https://www.chargepoint.com,GPS,38.935013,-94.670129,2025-07-17,172198,2025-07-17 00:50:42 UTC,,,,2021-01-27,,,,,J1772,US,,,,Public,,public,,,,,,,,,,,,,,,,,,,,,,,,,,,,,false,
ELEC,EVERGY @CITY CNTR-258C,8800 Penrose Ln @ EPC District at City Center,Parking garage Level 1. spaces 104 -109,Lenexa,KS,66219,,888-758-4389,E,,Public,24 hours daily,,,,,,2,,,ChargePoint Network,https://www.chargepoint.com,GPS,38.968951,-94.783595,2025-07-17,172253,2025-07-17 00:51:23 UTC,,,,2021-01-27,,,,,J1772,US,,,,Public,,public,,,,,,,,,,,,,,,,,,,,,,,,,,,,,false,
ELEC,EVERGY @CITY CNTR-258B,8800 Penrose Ln @ EPC District at City Center,Parking garage Level 1. spaces 104 -109,Lenexa,KS,66219,,888-758-4389,T,2025-07-02,TEMPORARILY UNAVAILABLE (Public),24 hours daily,,,,,,2,,,ChargePoint Network,https://www.chargepoint.com,GPS,38.968934,-94.783713,2025-07-17,172254,2025-07-17 00:51:17 UTC,,,,2021-01-27,,,,,J1772,US,,,,TEMPORAIREMENT SUSPENDU (Public),,public,,,,,,,,,,,,,,,,,,,,,,,,,,,,,false,
ELEC,EVERGY @ROSANA SQ-304B,11626 Metcalf Ave @ Rosana Square,In the Mardel Parking Lot,Overland Park,KS,66213,,888-758-4389,E,,Public,24 hours daily,,,,,,2,,,ChargePoint Network,https://www.chargepoint.com,GPS,38.915306,-94.669383,2025-07-17,172294,2025-07-17 00:52:00 UTC,,,,2021-01-27,,,,,J1772,US,,,,Public,,public,,,,,,,,,,,,,,,,,,,,,,,,,,,,,false,
ELEC,EVERGY @ROSANA SQ-304A,11626 Metcalf Ave @ Rosana Square,In the Mardel Parking Lot,Overland Park,KS,66213,,888-758-4389,E,,Public,24 hours daily,,,,,,2,,,ChargePoint Network,https://www.chargepoint.com,GPS,38.91525,-94.669383,2025-07-17,172295,2025-07-17 00:49:36 UTC,,,,2021-01-27,,,,,J1772,US,,,,Public,,public,,,,,,,,,,,,,,,,,,,,,,,,,,,,,false,
ELEC,EVERGY @JEWISH FS-220C,5803 W 115th St @ Jewish Family Services of K,West parking lot by the tennis courts,Overland Park,KS,66251,,888-758-4389,E,,Public,24 hours daily,,,,,,2,,,ChargePoint Network,https://www.chargepoint.com,GPS,38.917117,-94.654869,2025-07-17,172299,2025-07-17 00:56:47 UTC,,,,2021-01-27,,,,,J1772,US,,,,Public,,public,,,,,,,,,,,,,,,,,,,,,,,,,,,,,false,
ELEC,EVERGY @JEWISH FS-220B,5803 W 115th St @ Jewish Family Services of K,West parking lot by the tennis courts,Overland Park,KS,66251,,888-758-4389,E,,Public,24 hours daily,,,,,,2,,,ChargePoint Network,https://www.chargepoint.com,GPS,38.917066,-94.65485,2025-07-17,172300,2025-07-17 00:56:49 UTC,,,,2021-01-27,,,,,J1772,US,,,,Public,,public,,,,,,,,,,,,,,,,,,,,,,,,,,,,,false,
ELEC,EVERGY @ARVEST BNK006A,7403 W 135th St @ Arvest Bank,SW corner of the Arvest parking lot.,Overland Park,KS,66223,,888-758-4389,E,,Public,24 hours daily,,,,,,2,,,ChargePoint Network,https://www.chargepoint.com,GPS,38.88277,-94.672712,2025-07-17,172306,2025-07-17 00:49:35 UTC,,,,2021-01-27,,,,,J1772,US,,,,Public,,public,,,,,,,,,,,,,,,,,,,,,,,,,,,,,false,
ELEC,EVERGY @TRADEWIND-022B,16105 W 113th St @ Tradewind Energy,At west end of parking lot along Corporate Ave.,Lenexa,KS,66219,,888-758-4389,E,,Public,24 hours daily,,,,,,2,,,ChargePoint Network,https://www.chargepoint.com,GPS,38.92249,-94.771863,2025-07-17,172332,2025-07-17 00:51:18 UTC,,,,2021-01-27,,,,,J1772,US,,,,Public,,public,,,,,,,,,,,,,,,,,,,,,,,,,,,,,false,
ELEC,EVERGY @TRADEWIND-022C,16105 W 113th St @ Tradewind Energy,At west end of parking lot along Corporate Ave.,Lenexa,KS,66219,,888-758-4389,E,,Public,24 hours daily,,,,,,2,,,ChargePoint Network,https://www.chargepoint.com,GPS,38.92213,-94.773188,2025-07-17,172333,2025-07-17 00:50:02 UTC,,,,2021-01-27,,,,,J1772,US,,,,Public,,public,,,,,,,,,,,,,,,,,,,,,,,,,,,,,false,
ELEC,EVERGY @KC ORTHO -005A,3691 College Blvd @ KC Orthopedic Inst,In NW corner of parking lot along College Blvd.,Leawood,KS,66211,,888-758-4389,E,,Public,24 hours daily,,,,,,2,,,ChargePoint Network,https://www.chargepoint.com,GPS,38.927353,-94.628491,2025-07-17,172339,2025-07-17 00:49:33 UTC,,,,2021-01-27,,,,,J1772,US,,,,Public,,public,,,,,,,,,,,,,,,,,,,,,,,,,,,,,false,
ELEC,EVERGY @STOLL PRK-033A,12502 W 119th St @ Stoll Park,Located in the first parking lot on the right,Overland Park,KS,66210,,888-758-4389,E,,Public,24 hours daily,,,,,,2,,,ChargePoint Network,https://www.chargepoint.com,GPS,38.914811,-94.729988,2025-07-17,172344,2025-07-17 00:52:33 UTC,,,,2021-01-27,,,,,J1772,US,,,,Public,,public,,,,,,,,,,,,,,,,,,,,,,,,,,,,,false,
ELEC,EVERGY @STOLL PRK-033B,12502 W 119th St @ Stoll Park,Located in the first parking lot on the right,Overland Park,KS,66210,,888-758-4389,E,,Public,24 hours daily,,,,,,2,,,ChargePoint Network,https://www.chargepoint.com,GPS,38.914836,-94.72993,2025-07-17,172345,2025-07-17 00:52:04 UTC,,,,2021-01-27,,,,,J1772,US,,,,Public,,public,,,,,,,,,,,,,,,,,,,,,,,,,,,,,false,
ELEC,EVERGY @GOLF COURS017C,16451 Constance St @ Heritage Park Golf Cours,Located in the clubhouse parking lot,Olathe,KS,66062,,888-758-4389,T,2025-06-28,TEMPORARILY UNAVAILABLE (Public),24 hours daily,,,,,,2,,,ChargePoint Network,https://www.chargepoint.com,GPS,38.830214,-94.758173,2025-07-17,172346,2025-07-17 00:52:08 UTC,,,,2021-01-27,,,,,J1772,US,,,,TEMPORAIREMENT SUSPENDU (Public),,public,,,,,,,,,,,,,,,,,,,,,,,,,,,,,false,
ELEC,EVERGY @GOLF COURS017B,16451 Constance St @ Heritage Park Golf Cours,Located in the clubhouse parking lot,Olathe,KS,66062,,888-758-4389,E,,Public,24 hours daily,,,,,,2,,,ChargePoint Network,https://www.chargepoint.com,GPS,38.830172,-94.758146,2025-07-17,172347,2025-07-17 00:52:01 UTC,,,,2021-01-27,,,,,J1772,US,,,,Public,,public,,,,,,,,,,,,,,,,,,,,,,,,,,,,,false,
ELEC,EVERGY @KU EDWRD -155B,12602 Quivira Rd @ KU Edwards Campus,EVCS is located in the Edwards Campus parking lot behind the Phillips 66 on Quivira,Overland Park,KS,66213,,888-758-4389,E,,Public,24 hours daily,,,,,,2,,,ChargePoint Network,https://www.chargepoint.com,GPS,38.900426,-94.724904,2025-07-17,172348,2025-07-17 00:50:49 UTC,,,,2021-01-27,,,,,J1772,US,,,,Public,,public,,,,,,,,,,,,,,,,,,,,,,,,,,,,,false,
ELEC,EVERGY @KU EDWRD -155C,12602 Quivira Rd @ KU Edwards Campus,EVCS is located in the Edwards Campus parking lot behind the Phillips 66 on Quivira,Overland Park,KS,66213,,888-758-4389,E,,Public,24 hours daily,,,,,,2,,,ChargePoint Network,https://www.chargepoint.com,GPS,38.900373,-94.724898,2025-07-17,172349,2025-07-17 00:50:46 UTC,,,,2021-01-27,,,,,J1772,US,,,,Public,,public,,,,,,,,,,,,,,,,,,,,,,,,,,,,,false,
ELEC,EVERGY @HY-VEE -010B,6657 Martway St @ Hy-Vee,Located on the west side of the Hy-Vee parking lot near the gas station.,Mission,KS,66202,,888-758-4389,E,,Public,24 hours daily,,,,,,2,,,ChargePoint Network,https://www.chargepoint.com,GPS,39.019902,-94.662799,2025-07-17,172350,2025-07-17 00:49:46 UTC,,,,2021-01-27,,,,,J1772,US,,,,Public,,public,,,,,,,,,,,,,,,,,,,,,,,,,,,,,false,
ELEC,EVERGY @ARVEST BNK009A,6302 Nall Ave @ Arvest Bank,In the bank parking lot,Mission,KS,66202,,888-758-4389,E,,Public,24 hours daily,,,,,,2,,,ChargePoint Network,https://www.chargepoint.com,GPS,39.01493,-94.650267,2025-07-17,172351,2025-07-17 00:52:22 UTC,,,,2021-01-27,,,,,J1772,US,,,,Public,,public,,,,,,,,,,,,,,,,,,,,,,,,,,,,,false,
ELEC,EVERGY @HILTON GI-008C,12078 S Strang Line Rd @ Hilton Garden Inn,North side of building between the Hilton Inn and Holiday Inn Express,Olathe,KS,66062,,888-758-4389,E,,Public,24 hours daily,,,,,,2,,,ChargePoint Network,https://www.chargepoint.com,GPS,38.911556,-94.769553,2025-07-17,172352,2025-07-17 00:52:28 UTC,,,,2021-01-27,,,,,J1772,US,,,,Public,,public,,,,,,,,,,,,,,,,,,,,,,,,,,,,,false,
ELEC,EVERGY @HILTON GI-008A,12078 S Strang Line Rd @ Hilton Garden Inn,North side of building between the Hilton Inn and Holiday Inn Express,Olathe,KS,66062,,888-758-4389,E,,Public,24 hours daily,,,,,,2,,,ChargePoint Network,https://www.chargepoint.com,GPS,38.911542,-94.769616,2025-07-17,172353,2025-07-17 00:52:04 UTC,,,,2021-01-27,,,,,J1772,US,,,,Public,,public,,,,,,,,,,,,,,,,,,,,,,,,,,,,,false,
ELEC,EVERGY @EPA -174F,11201 Renner Blvd @ US Enviromental Protectio,North employee parking lot,Lenexa,KS,66219,,888-758-4389,E,,Public,24 hours daily,,,,,,2,,,ChargePoint Network,https://www.chargepoint.com,GPS,38.925905,-94.778283,2025-07-17,172507,2025-07-17 00:50:50 UTC,,,,2021-01-27,,,,,J1772,US,,,,Public,,public,,,,,,,,,,,,,,,,,,,,,,,,,,,,,false,
ELEC,EVERGY @EPA -174E,11201 Renner Blvd @ US Enviromental Protectio,North employee parking lot,Lenexa,KS,66219,,888-758-4389,E,,Public,24 hours daily,,,,,,2,,,ChargePoint Network,https://www.chargepoint.com,GPS,38.925856,-94.778285,2025-07-17,172508,2025-07-17 00:50:47 UTC,,,,2021-01-27,,,,,J1772,US,,,,Public,,public,,,,,,,,,,,,,,,,,,,,,,,,,,,,,false,
ELEC,EVERGY @EPA -174D,11201 Renner Blvd @ US Enviromental Protectio,North employee parking lot,Lenexa,KS,66219,,888-758-4389,E,,Public,24 hours daily,,,,,,2,,,ChargePoint Network,https://www.chargepoint.com,GPS,38.925808,-94.778295,2025-07-17,172509,2025-07-17 00:50:47 UTC,,,,2021-01-27,,,,,J1772,US,,,,Public,,public,,,,,,,,,,,,,,,,,,,,,,,,,,,,,false,
ELEC,EVERGY @EPA -174A,11201 Renner Blvd @ US Enviromental Protectio,North employee parking lot,Lenexa,KS,66219,,888-758-4389,E,,Public,24 hours daily,,,,,,2,,,ChargePoint Network,https://www.chargepoint.com,GPS,38.925758,-94.778285,2025-07-17,172510,2025-07-17 00:50:46 UTC,,,,2021-01-27,,,,,J1772,US,,,,Public,,public,,,,,,,,,,,,,,,,,,,,,,,,,,,,,false,
ELEC,EVERGY @EPA -174C,11201 Renner Blvd @ US Enviromental Protectio,North employee parking lot,Lenexa,KS,66219,,888-758-4389,E,,Public,24 hours daily,,,,,,2,,,ChargePoint Network,https://www.chargepoint.com,GPS,38.925662,-94.778274,2025-07-17,172511,2025-07-17 00:51:56 UTC,,,,2021-01-27,,,,,J1772,US,,,,Public,,public,,,,,,,,,,,,,,,,,,,,,,,,,,,,,false,
ELEC,EVERGY @WALMART -073B,18555 W 151st St @ Walmart #4198,NW corner of the parking lot,Olathe,KS,66062,,888-758-4389,E,,Public,24 hours daily,,,,,,2,,,ChargePoint Network,https://www.chargepoint.com,GPS,38.853617,-94.800396,2025-07-17,172534,2025-07-17 00:51:10 UTC,,,,2021-01-27,,,,,J1772,US,,,,Public,,public,,,,,,,,,,,,,,,,,,,,,,,,,,,,,false,
ELEC,EVERGY @WALMART -073A,18555 W 151st St @ Walmart #4198,NW corner of the parking lot,Olathe,KS,66062,,888-758-4389,E,,Public,24 hours daily,,,,,,2,,,ChargePoint Network,https://www.chargepoint.com,GPS,38.853747,-94.80039,2025-07-17,172535,2025-07-17 00:50:02 UTC,,,,2021-01-27,,,,,J1772,US,,,,Public,,public,,,,,,,,,,,,,,,,,,,,,,,,,,,,,false,
ELEC,EVERGY @SHMSN PRK-043C,18531 W 79th St @ Shawnee Mission Park Marina,Marina parking lot,Shawnee,KS,66218,,888-758-4389,E,,Public,24 hours daily,,,,,,2,,,ChargePoint Network,https://www.chargepoint.com,GPS,38.988081,-94.799714,2025-07-17,172536,2025-07-17 00:50:49 UTC,,,,2021-01-27,,,,,J1772,US,,,,Public,,public,,,,,,,,,,,,,,,,,,,,,,,,,,,,,false,
ELEC,EVERGY @SHMSN PRK-043A,18531 W 79th St @ Shawnee Mission Park Marina,Marina parking lot,Shawnee,KS,66218,,888-758-4389,E,,Public,24 hours daily,,,,,,2,,,ChargePoint Network,https://www.chargepoint.com,GPS,38.988145,-94.799602,2025-07-17,172537,2025-07-17 00:52:05 UTC,,,,2021-01-27,,,,,J1772,US,,,,Public,,public,,,,,,,,,,,,,,,,,,,,,,,,,,,,,false,
ELEC,EVERGY @PRESBY CH-187A,9902 Mission Rd @ Village Presbyterian Church,Front parking lot along Mission Rd.,Overland Park,KS,66207,,888-758-4389,T,2025-05-20,TEMPORARILY UNAVAILABLE (Public),24 hours daily,,,,,,2,,,ChargePoint Network,https://www.chargepoint.com,GPS,38.948501,-94.63136,2025-07-17,172542,2025-07-17 00:49:45 UTC,,,,2021-01-27,,,,,J1772,US,,,,TEMPORAIREMENT SUSPENDU (Public),,public,,,,,,,,,,,,,,,,,,,,,,,,,,,,,false,
ELEC,EVERGY @B&V ENG -302D,11407 Lamar Ave @ Black and Veatch,In North Parking Lot along 112th,Overland Park,KS,66211,,888-758-4389,E,,Public,24 hours daily,,,,,,2,,,ChargePoint Network,https://www.chargepoint.com,GPS,38.925628,-94.655291,2025-07-17,172670,2025-07-17 00:52:38 UTC,,,,2021-01-27,,,,,J1772,US,,,,Public,,public,,,,,,,,,,,,,,,,,,,,,,,,,,,,,false,
ELEC,EVERGY @B&V ENG -302F,11407 Lamar Ave @ Black and Veatch,In the North Lot along 112th,Overland Park,KS,66211,,888-758-4389,E,,Public,24 hours daily,,,,,,2,,,ChargePoint Network,https://www.chargepoint.com,GPS,38.925635,-94.65516,2025-07-17,172671,2025-07-17 00:52:38 UTC,,,,2021-01-27,,,,,J1772,US,,,,Public,,public,,,,,,,,,,,,,,,,,,,,,,,,,,,,,false,
ELEC,EVERGY @B&V ENG -302E,11407 Lamar Ave @ Black and Veatch,In the North Lot along 112th,Overland Park,KS,66211,,888-758-4389,E,,Public,24 hours daily,,,,,,2,,,ChargePoint Network,https://www.chargepoint.com,GPS,38.925631,-94.655223,2025-07-17,172672,2025-07-17 00:52:37 UTC,,,,2021-01-27,,,,,J1772,US,,,,Public,,public,,,,,,,,,,,,,,,,,,,,,,,,,,,,,false,
ELEC,EVERGY @B&V ENG -302C,11407 Lamar Ave @ Black and Veatch,In North Parking Lot along 112th,Overland Park,KS,66211,,888-758-4389,E,,Public,24 hours daily,,,,,,2,,,ChargePoint Network,https://www.chargepoint.com,GPS,38.92563,-94.655357,2025-07-17,172673,2025-07-17 00:51:47 UTC,,,,2021-01-27,,,,,J1772,US,,,,Public,,public,,,,,,,,,,,,,,,,,,,,,,,,,,,,,false,
ELEC,EVERGY @B&V ENG -302A,11407 Lamar Ave @ Black and Veatch,In North Parking Lot along 112th,Overland Park,KS,66211,,888-758-4389,E,,Public,24 hours daily,,,,,,2,,,ChargePoint Network,https://www.chargepoint.com,GPS,38.925629,-94.655478,2025-07-17,172674,2025-07-17 00:52:27 UTC,,,,2021-01-27,,,,,J1772,US,,,,Public,,public,,,,,,,,,,,,,,,,,,,,,,,,,,,,,false,
ELEC,EVERGY @CORP WOOD-140B,9407 Indian Creek Pkwy @ Corp. Woods (Bldg. #,Located on the south side of building 40.,Overland Park,KS,66210,,888-758-4389,E,,Public,24 hours daily,,,,,,2,,,ChargePoint Network,https://www.chargepoint.com,GPS,38.93073,-94.69529,2025-07-17,172675,2025-07-17 00:50:59 UTC,,,,2021-01-27,,,,,J1772,US,,,,Public,,public,,,,,,,,,,,,,,,,,,,,,,,,,,,,,false,
ELEC,EVERGY @CORP WOOD-140D,9407 Indian Creek Pkwy @ Corp. Woods (Bldg. #,Located on the south side of building 40.,Overland Park,KS,66210,,888-758-4389,E,,Public,24 hours daily,,,,,,2,,,ChargePoint Network,https://www.chargepoint.com,GPS,38.930669,-94.695289,2025-07-17,172676,2025-07-17 00:50:59 UTC,,,,2021-01-27,,,,,J1772,US,,,,Public,,public,,,,,,,,,,,,,,,,,,,,,,,,,,,,,false,
ELEC,EVERGY @CORP WOOD-140C,9407 Indian Creek Pkwy @ Corp. Woods (Bldg. #,Located on the south side of building 40.,Overland Park,KS,66210,,888-758-4389,E,,Public,24 hours daily,,,,,,2,,,ChargePoint Network,https://www.chargepoint.com,GPS,38.930697,-94.695289,2025-07-17,172677,2025-07-17 00:50:59 UTC,,,,2021-01-27,,,,,J1772,US,,,,Public,,public,,,,,,,,,,,,,,,,,,,,,,,,,,,,,false,
